Flag,"Vessel Name","Destination Port","Reported Eta","Reported Destination","Current Port",Imo,"Vessel Type - Generic","Time Of Latest Position",Latitude,Longitude
Indonesia,"DHARMA KARTIKA VII",PONTIANAK,"2022-09-08 14:30:00","PONTIANAK SEMARANG",PONTIANAK,9174751,Cargo,"2022-09-08 13:51:55",-0.01940833,109.3372
Indonesia,"ILE DE RE",SINGAPORE,-,"AEW SINGAPORE",,8200278,"Special Craft","2022-09-08 13:53:54",22.79333,124.25
Indonesia,"TIMAS 1201",,"2022-09-04 12:00:00",MERAKES,,9513579,"Special Craft","2022-09-07 08:14:53",-1.36495,117.5797
Indonesia,BRABO,"BATU AMPAR","2022-07-03 10:00:00","ID BATAM","BATU AMPAR",9382372,"Special Craft","2022-09-08 13:53:14",1.079967,103.8894
Indonesia,"LIMIN VENTURE","BATU AMPAR","2022-09-07 13:00:00","BATUAMPAR, BATAM","BATU AMPAR ANCH",8027810,"Special Craft","2022-09-08 13:52:24",1.177023,103.9722
Indonesia,"CS NUSANTARA EXPLORER",,"2022-08-05 18:00:00","PTR RSA",,9126584,"Special Craft","2022-09-08 13:53:48",64.49167,178.4217
Indonesia,"CS TENEO",SINGAPORE,"2022-08-15 05:00:00",SINGAPORE,"SINGAPORE ANCH",9019602,"Special Craft","2022-09-08 13:49:33",1.269175,103.8735
Indonesia,"VOYAGER EXPLORER","LADNER AUTHORITY",-,"DELTA BATAM","BATU AMPAR",9319052,"Special Craft","2022-09-08 13:41:58",1.005028,103.9569
Indonesia,"ELSA REGENT","BATU AMPAR",-,BATAM,"BATU AMPAR",9017757,"Special Craft","2022-09-08 01:36:07",1.15341,103.9968
Indonesia,"GRIYA JAWA",SORONG,"2022-09-09 00:00:00",SORONG,SORONG,9212589,Tanker,"2022-09-08 12:00:57",-0.8794084,131.2488
Indonesia,"PACIFIC GUARDIAN",,"2022-09-03 12:00:00",TALIABU,,8222941,"Special Craft","2022-09-08 13:40:47",-2.114355,125.0842
Indonesia,"DNEX PACIFIC LINK","PASIR GUDANG","2022-08-28 10:00:00","JOHOR PORT","PASIR GUDANG",9017824,"Special Craft","2022-09-08 13:52:18",1.432333,103.9208
Indonesia,"IFAMA MAS",BELAWAN,-,IDBLW,,9164251,Cargo,"2022-09-08 11:13:56",-3.790667,107.7021
Indonesia,AISHAKAMILAH,MAKASSAR,-,MAKASSAR,,9039585,Cargo,"2022-09-08 13:26:57",-5.649833,110.9677
Indonesia,"DEEP BLUE",CILACAP,"2022-09-06 15:00:00",CILACAP,"CILACAP ANCH",9299903,Tanker,"2022-09-08 07:52:51",-7.753167,109.0512
Indonesia,"CMA CGM HOMERE",NOUAKCHOTT,-,MRNKC,,9362322,Cargo,"2022-09-08 13:53:57",28.14803,-13.40671
Indonesia,"PRIMA CONCORD",BONTANG,"2022-08-17 00:00:00","ID JKT>ID BXT","BONTANG ANCH",9256793,Tanker,"2022-09-08 13:51:35",0.007881667,117.6221
Indonesia,"PACIFIC FINDER",LABUAN,"2020-09-09 07:00:00",LABUAN,"BRUNEI BAY",9548495,"Special Craft","2020-09-12 03:02:56",5.160128,115.3261
Indonesia,"PELAGOS ONE",JAKARTA,"2022-09-08 08:00:00","ID TG PRIOK","JAKARTA ANCH",9299898,Tanker,"2022-09-08 13:49:35",-6.0145,106.9212
Indonesia,"GAS FELICITY",GALVESTON,"2022-08-31 09:30:00","GALVESTON ANCHR",FREEPORT,9354624,Tanker,"2022-09-08 13:52:24",28.93493,-95.33128
Indonesia,"SC ESTEEM LII",PENGERANG,"2022-09-08 09:00:00",PENGERANG.MY,"PASIR GUDANG ANCH",9251573,Tanker,"2022-09-08 13:52:02",1.312235,104.151
Indonesia,"GAS CAMELOT",KALBUT,"2022-07-13 13:30:00",KALBUT,KALBUT,9352963,Tanker,"2022-09-08 13:53:42",-7.595,113.9917
Indonesia,"SC EXPLORER LIII",TUBAN,"2022-09-04 03:00:00",TUBAN,"TUBAN ANCH",9251561,Tanker,"2022-09-08 09:19:31",-6.706827,111.9188
Indonesia,"ASEAN EXPLORER","BATU AMPAR",-,BATAM,,9236676,"Special Craft","2022-09-08 13:50:03",-1.313333,107.0383
Indonesia,"HENDROPRIYONO III",MUNTOK,"2022-09-07 06:18:00",MUNTOK,"MUNTOK ANCH",9315458,Tanker,"2022-09-08 13:26:22",-2.089228,105.0698
Indonesia,"NPP NUSANTARA",MUMBAI,-,"MUMBAI HIGH",,9483061,"Special Craft","2022-09-08 13:34:15",19.52833,71.32667
Indonesia,"IZUMI MAS","PASIR GUDANG",-,"MY PGU",,9164249,Cargo,"2022-09-08 13:53:56",2.03271,101.8914
Indonesia,"MERATUS JIMBARAN",,"2022-09-07 09:00:00",VNDAN,,9213105,Cargo,"2022-09-08 13:43:25",18.69333,107.3017
Indonesia,"NUSA PUTERA",BAKAUHENI,-,"MERAK - BAKAUHENI",CILEGON,8314562,Passenger,"2022-09-06 20:22:45",-5.951007,106.1355
Indonesia,NGGAPULU,,-,BAUS,AMBON,9226499,Passenger,"2022-09-08 13:51:12",-3.69435,128.1754
Indonesia,"MERATUS JAYAGIRI","PORT KLANG","2022-09-08 04:00:00",MYPKG,"PORT KLANG",9213117,Cargo,"2022-09-08 13:54:15",2.934765,101.2943
Indonesia,"PRIMA CARRIER",,"2022-09-08 23:00:00","ID BLL",,9264910,Tanker,"2022-09-08 13:28:05",5.3415,97.2487
Indonesia,"GAS ALYSSA",FREEPORT,-,USFPO,,9364394,Tanker,"2022-09-08 13:53:50",15.44894,-69.28827
Indonesia,"PANCARAN INTEGRITY",JAKARTA,"2022-09-03 05:00:00",TG.PRIOK,"JAKARTA ANCH",9322061,Tanker,"2022-09-08 13:52:51",-6.024783,106.9023
Indonesia,"EKAPUTRA 1",,-,"ID TGH",,8706155,Tanker,"2022-09-08 13:31:07",-6.338792,117.9597
Indonesia,"PRIMA ENERGY",,-,"TG SEKONG IDN",,9232515,Tanker,"2022-09-08 13:52:12",7.77492,-48.28194
Indonesia,"COMMODORE ONE",CILACAP,"2022-09-08 12:24:00",CILACAP,"CILACAP ANCH",9260017,Tanker,"2022-09-08 11:41:08",-7.747032,109.0684
Indonesia,"LOGISTIK NUSANTARA 5",,-,MOROTAI,,9351361,Cargo,"2022-09-08 13:02:53",2.04994,128.289
Indonesia,RUBRA,BALIKPAPAN,"2022-08-14 10:18:00",BALIKPAPAN,,9193733,Tanker,"2022-09-08 13:53:37",-1.325333,116.9733
Indonesia,"SEA CHAMPION",SINGAPORE,"2022-09-07 12:45:00","SG PEBGC",SINGAPORE,9260029,Tanker,"2022-09-08 13:51:07",1.249522,103.6892
Indonesia,KELUD,JAKARTA,"2022-09-08 22:00:00","TG PRIOK",,9139684,Passenger,"2022-09-08 13:53:53",-5.395,106.9583
Indonesia,"NUSA MERDEKA",CILACAP,-,"ID CILACAP",,9249178,Tanker,"2022-09-08 13:52:22",-8.912931,114.6509
Indonesia,DOBONSOLO,BAUBAU,"2022-09-08 22:00:00",BAUBAU,,9032147,Passenger,"2022-09-08 13:52:23",-5.705,120.555
Indonesia,"TENDER HARMONY",SORONG,"2022-09-03 22:30:00","ID SOQ",,9302669,Tanker,"2022-09-08 12:12:46",-2.073485,117.8621
Indonesia,"DOUBLE SEVEN",SINGAPORE,"2022-09-08 19:00:00",SINGAPORE,SINGAPORE,9309382,Tanker,"2022-09-08 13:54:11",1.28228,103.6955
Indonesia,"LOGISTIK NUSANTARA 6",MAKASSAR,"2022-08-26 17:00:00",MAKASSAR,,9574999,Cargo,"2022-09-08 13:53:37",3.601667,125.5
Indonesia,"PANCARAN INFINITY","MEKAR PUTIH","2022-09-06 23:50:00","IBT MEKAR PUTIH","MEKAR PUTIH ANCH",9397054,Tanker,"2022-09-08 13:23:49",-4.015755,116.0078
Indonesia,"ORIENTAL DIAMOND",JAKARTA,-,"ID JKT",,9204984,Cargo,"2022-09-08 13:53:24",-2.539478,140.761
Indonesia,"MARIANNA 28",BONTANG,-,BONTANG,,9183570,Tanker,"2022-09-08 08:56:35",16.95826,109.2809
Indonesia,"GAS AMARIN JAYA",KALBUT,"2022-09-06 02:00:00",KALBUT,"SURABAYA ANCH",9364966,Tanker,"2022-09-08 13:22:05",-6.851967,112.7801
Indonesia,"QUEEN MAJESTY",,"2022-09-04 01:30:00","PNG,MY",,9295323,Tanker,"2022-09-08 13:48:33",1.319137,104.2257
Indonesia,"MERATUS PROJECT 3",PANTOLOAN,"2022-07-09 19:00:00",IDPTL,,9358046,Cargo,"2022-09-08 13:14:49",0.4925483,119.6655
Indonesia,"SC ALIA XVII","SUNGAI PAKNING","2022-09-08 23:00:00","ID SEI PAKNING",,9259903,Tanker,"2022-09-08 13:54:01",1.674782,102.8148
Indonesia,"MERATUS JAYAWIJAYA","DAR ES SALAAM","2022-09-07 12:00:00",TZDAR,,9305881,Cargo,"2022-09-08 13:29:46",-6.682853,39.3101
Indonesia,"SC OCEAN LXI",JAKARTA,"2022-09-04 19:00:00","TJ PRIOK","JAKARTA ANCH",9299599,Tanker,"2022-09-08 13:52:45",-5.999438,106.9116
Indonesia,"GAS OMEGA",SEMARANG,"2022-09-07 17:36:00",SEMARANG,,9172129,Tanker,"2022-09-08 13:48:45",-6.14,108.6283
Indonesia,PETROSAMUDRA,"SINGAPORE ANCH","2022-09-01 22:30:00","PEBGC. POB 0630LT","SINGAPORE ANCH",9260043,Tanker,"2022-09-08 13:52:13",1.287978,103.9786
Indonesia,"KARUNIA GEMILANG I","PANGKALAN SUSU","2022-08-29 00:00:00","PANGKLAN SUSU","PANGKALAN SUSU ANCH",9249300,Cargo,"2022-09-08 13:35:28",4.23045,98.42972
Indonesia,DUTA2,BALIKPAPAN,"2022-09-06 15:51:00",IDBPN,BALIKPAPAN,9107473,Cargo,"2022-09-07 20:15:51",-1.270058,116.8071
Indonesia,"EGS SURVEYOR",BALIKPAPAN,"2022-09-06 23:00:00",BALIKPAPAN,BALIKPAPAN,6820983,"Special Craft","2022-09-08 13:52:28",-1.2731,116.8054
Indonesia,"DHARMA FERRY VII",SURABAYA,"2022-09-09 03:44:00","ID SBY",,9035113,Passenger,"2022-09-08 13:50:28",-5.231958,114.9835
Indonesia,"SERASI III",JAKARTA,-,TG.PRIOK\JKT,,8716162,Cargo,"2022-09-08 13:28:31",-5.647232,110.2686
Indonesia,"DHARMA KENCANA 7",MAKASSAR,"2022-09-08 14:00:00",MAKASSAR,,9035125,Passenger,"2022-09-08 13:50:29",-6.264843,115.343
Indonesia,"TOTAL ENERGY",JAKARTA,-,IDJKT,,9302657,Tanker,"2022-09-08 13:28:55",-1.389835,106.5186
Indonesia,"GREEN PLUS",SANGATA,"2022-09-07 18:30:00",SANGATTA,SANGATA,9228837,Tanker,"2022-09-08 13:51:31",0.3592567,117.5749
Indonesia,"AQUA BLU",BENOA,"2022-09-03 07:00:00",BENOA,,4902921,Passenger,"2022-09-08 06:10:37",-8.598833,119.5118
Indonesia,"SEABORNE PETRO",TUBAN,"2022-09-07 17:00:00",TUBAN,,9247833,Tanker,"2022-09-08 12:09:55",-6.717933,111.8635
Indonesia,MABROUK,"PORT SAID",-,"PORT SAID",,9232864,Tanker,"2022-09-08 13:41:59",33.30291,26.74319
Indonesia,SINABUNG,BIAK,-,BIAK,,9139672,Passenger,"2022-09-08 13:48:09",-2.29235,140.2672
Indonesia,"DHARMA KARTIKA IX",BANJARMASIN,"2022-09-08 09:00:00",BANJARMASIN,BANJARMASIN,9140023,Cargo,"2022-09-08 13:52:33",-3.326922,114.5581
Indonesia,"BULL DAMAI 1",TIANJIN,-,CNTNG>>CNWEG,,9248849,Tanker,"2022-09-08 13:53:17",37.15188,124.1546
Indonesia,"DETROIT MAS",SURABAYA,-,SURABAYA,,9393503,Cargo,"2022-09-08 13:44:25",-1.605555,117.4297
Indonesia,"BULL KANGEAN",ROTTERDAM,"2022-09-08 03:00:00","NL RTM",,9267027,Tanker,"2022-09-08 13:53:37",51.38251,3.719617
Indonesia,BERG,MERAK,-,"ID TG GEREM",,9374325,Tanker,"2022-09-08 13:50:19",-0.8783333,105.66
Indonesia,"MERATUS SORONG",SHANGHAI,"2022-09-06 10:42:00",SHANGHAI/CNSHA,CJK,9186754,Cargo,"2022-09-08 13:38:16",31.23939,122.5975
Indonesia,"VICTORIA LYRA",KALBUT,-,"ID KALBUT",,9347516,Tanker,"2022-09-08 13:15:18",9.593753,72.06843
Indonesia,"DHARMA LAUTAN RUBY",CILEGON,"2022-06-02 12:30:00","BOJONEGARA SMI",CILEGON,9304095,Cargo,"2022-09-08 13:53:48",-5.976666,106.1117
Indonesia,"KIRANA IX",BAKAUHENI,"2022-09-08 13:45:00",BAKAUHENI,BAKAUHENI,8220060,Passenger,"2022-09-08 13:53:15",-5.87257,105.7529
Indonesia,"SINAR SRIKANDI",BALIKPAPAN,"2022-08-30 17:00:00",BALIKPAPAN,,9449429,Tanker,"2022-09-08 13:51:23",-1.304352,116.9767
Indonesia,"OLYMPUS I",DUMAI,"2022-09-06 13:00:00","ID DUMAI",DUMAI,9214757,Tanker,"2022-09-08 12:22:22",1.684257,101.4823
Indonesia,"PORT LINK",BAKAUHENI,"1900-01-01 00:00:00","MERAK / BAKAUHENI","MERAK ANCH",7910917,Passenger,"2022-09-08 13:53:15",-5.956398,105.9702
Indonesia,DECORA,"TANJUNG UBAN",-,"TG UBAN",,9586679,Tanker,"2022-09-08 13:47:59",2.765,101.025
Indonesia,"SAMUDRA SAKTI V",BONTANG,"1900-01-01 00:00:00",BONTANG,BONTANG,9167631,Cargo,"2022-09-08 13:54:19",0.1802483,117.499
Indonesia,"MERATUS PROJECT PRIMA",AMAMAPARE,"2022-09-08 14:40:00",AMAMAPARE,,9457115,Cargo,"2022-09-08 13:16:10",-4.84916,136.7978
Indonesia,"JABBAR ENERGY",CILACAP,"2022-09-07 13:36:00",CILACAP,CILACAP,9227118,Tanker,"2022-09-08 12:35:08",-7.701195,108.9922
Indonesia,"PRIMA LAUTAN I",SURABAYA,"2022-09-05 20:00:00",SURABAYA,SURABAYA,9262948,Tanker,"2022-09-08 13:41:00",-7.198317,112.7157
Indonesia,ARTEMIS,CILACAP,-,CILACAP,,9305532,Tanker,"2022-09-08 13:28:45",-8.775162,114.1739
Indonesia,"SC MAJESTIC LXII",FUJAIRAH,-,"AE FJR",,9308948,Tanker,"2022-09-08 13:52:49",-3.794,41.11666
Indonesia,"PANCARAN I 5505",SURALAYA,"2022-09-08 16:00:00","SURALAYA ID",SURALAYA,9317080,Cargo,"2022-09-08 13:42:15",-5.881812,106.0311
Indonesia,"MAHAKAMAH I",SURABAYA,"2022-09-03 23:00:00",SURABAYA,SURABAYA,9219264,Tanker,"2022-09-08 08:30:35",-7.19407,112.7437
Indonesia,"SHIP 115",JAMBI,-,JAMBI,"MUARA SABAK",9131876,Tanker,"2022-09-08 11:14:17",-0.9180366,104.0827
Indonesia,"DORO LONDA",SURABAYA,-,SURABAYA,JAKARTA,9226487,Passenger,"2022-09-08 13:51:21",-6.104993,106.8824
Indonesia,"ABDUL HAMID",SEMARANG,"2022-09-04 23:00:00",SERANG,"CILEGON ANCH",9329837,Cargo,"2022-09-08 13:51:03",-5.893333,106.1133
Indonesia,"TANTO BERSINAR",SURABAYA,"1900-01-01 00:00:00",,SURABAYA,9202900,Cargo,"2022-09-08 13:51:39",-7.188653,112.6889
Indonesia,"PANCARAN GLORY","RICHARDS BAY",-,ZARCB,,9382724,Cargo,"2022-09-08 13:52:20",-23.01862,51.82383
Indonesia,EMMANUEL,DUMAI,"2022-09-08 02:00:00",DUMAI,DUMAI,9240720,Tanker,"2022-09-08 13:34:26",1.6855,101.4777
Indonesia,"PANCARAN VICTORY",DOUALA,"2022-09-07 21:00:00",DOULA,"DOUALA ANCH",9335020,Cargo,"2022-09-08 13:49:51",3.874188,9.515905
Indonesia,"PANCARAN PROSPERITY",DUMAI,"2022-09-06 15:00:00","ID DUMAI",,9322073,Tanker,"2022-09-08 13:41:40",1.706217,101.4295
Indonesia,"PETER P",CHITTAGONG,"1900-01-01 00:00:00",,CHITTAGONG,9185279,Tanker,"2022-08-31 05:57:52",22.28206,91.79437
Indonesia,"MBS BRATAN",MUARA,-,"MUARA BERAU-ID",,9511820,Cargo,"2022-09-08 13:39:20",13.83167,117.5833
Indonesia,"HABCO PIONEER",,"2022-08-24 07:00:00","SMI,DOCK",CILEGON,9370329,Cargo,"2022-09-03 02:01:39",-5.98115,106.1122
Indonesia,"LNG AQUARIUS",JAKARTA,"2021-04-07 04:00:00","ID TPP","JAKARTA ANCH",7390181,Tanker,"2021-12-19 08:09:35",-5.952055,106.7731
Indonesia,"QUEEN PROTOCOL",PENGERANG,"2022-09-04 02:30:00",SBY.ID>>PENGERANG.MY,"PASIR GUDANG ANCH",9260031,Tanker,"2022-09-08 13:46:12",1.317167,104.1247
Indonesia,"UNION TRUST",BELAWAN,"2022-09-07 20:00:00","ID BLW","BELAWAN ANCH",9290490,Tanker,"2022-09-08 13:40:43",3.895903,98.77552
Indonesia,"KALIMANTAN LEADER",,"2022-09-04 11:00:00","ID PTB",,9078567,Cargo,"2022-09-08 04:45:22",-6.227988,107.9098
Indonesia,"IMMANUEL X","PANGKALAN SUSU","2022-09-06 21:00:00","PANGKALAN SUSU","PANGKALAN SUSU ANCH",9409314,Tanker,"2022-09-08 13:53:03",4.245,98.40334
Indonesia,"DUTA 1",HAKATA,-,"JP HAKATA",,9033751,Cargo,"2022-09-08 13:46:56",30.93167,126.9317
Indonesia,KUMALA,MERAK,"2022-09-08 15:12:00",MERAK,,7124116,Passenger,"2022-09-08 13:53:14",-5.90156,105.8698
Indonesia,"MERATUS JAYAKARTA",,"2022-09-08 02:00:00",REREUTM,REUNION,9305879,Cargo,"2022-09-08 13:51:44",-20.93173,55.31568
Indonesia,"ASEAN PROTECTOR",SEMBAWANG,"2022-06-27 12:20:00",S19>SEMBAWANG,SEMBAWANG,9248710,"Special Craft","2022-09-08 13:49:43",1.468283,103.8342
Indonesia,TIDAR,"FAK FAK","2022-09-07 19:00:00",FAK-FAK,SORONG,8700292,Passenger,"2022-09-08 13:46:24",-0.8783333,131.245
Indonesia,"MERATUS PEMATANGSIANTAR",,-,KR.JAMUANG,,9371892,Cargo,"2022-09-08 13:26:43",-7.97005,116.2046
Indonesia,AMBERMAR,CILACAP,"2022-09-02 22:12:00",CILACAP,CILACAP,9231626,Tanker,"2022-09-08 01:32:44",-7.749135,109.0088
Indonesia,"ERICA 10",LAMONGAN,"2022-04-10 14:00:00","ID LAMONGAN",LAMONGAN,9572862,Tanker,"2022-09-08 12:48:59",-6.865,112.425
Indonesia,"SALMON MUSTAFA",GRESIK,"2022-08-28 16:30:00","GRESIK ID",,9034717,Tanker,"2022-09-08 13:44:39",-7.085405,112.6654
Indonesia,"SAMUDRA SAKTI III","KUALA TANJUNG","2022-09-09 05:00:00","KUALA TANJUNG",,9320295,Cargo,"2022-09-08 13:51:23",2.713333,101.2167
Indonesia,"SINAR BANDA",,"2022-08-09 05:00:00",VN-QUYNHON,,9371098,Cargo,"2022-09-08 13:52:43",10.74667,109.36
Indonesia,PANTOKRATOR,"PARE PARE","2022-09-08 09:00:00","PARE PARE",,8611647,Passenger,"2022-09-08 00:24:05",-4.05179,119.5939
Indonesia,"AMANAH HALMAHERA AMC",MUARA,-,"ID MUARA PANTAI",,9277254,Cargo,"2022-09-08 13:43:15",-0.8732917,127.4183
Indonesia,TRIPUTRA,,"2022-09-04 01:00:00","ID PTB",,9187356,Tanker,"2022-09-08 11:33:04",-6.15674,107.9327
Indonesia,"NUR AWLIYA",MUARA,"2022-09-01 23:30:00","MUARA BERAU","MUARA BERAU ANCH",9300518,Cargo,"2022-09-08 13:51:44",-0.2553833,117.6084
Indonesia,"GOLDEN DESTINY","KARAN OILFIELD",-,"KARANG JAMUANG",,9252046,Cargo,"2022-09-08 13:31:15",-5.849398,109.5275
Indonesia,"MERATUS MEDAN 5",SINGAPORE,-,"SINGAPORE PWBG A",,9178393,Cargo,"2022-09-08 13:53:48",1.703457,102.5964
Indonesia,"SAAMIS ADVENTURER",MERAK,"2022-09-08 13:00:00",TG.GEREM,"MERAK ANCH",9126285,Tanker,"2022-09-08 13:52:10",-5.981333,105.9712
Indonesia,"SINAR MANDALIKA",MERAK,"2022-09-05 22:00:00","ID MERAK","CIWANDAN ANCH",9326213,Tanker,"2022-09-08 13:47:19",-6.007432,105.94
Indonesia,KAYSAN,BAHUDOPI,"2022-09-05 16:20:00",MOROWALI,,9274587,Cargo,"2022-09-08 10:55:05",-2.863082,122.1876
Indonesia,"MBS BUYAN",SAMARINDA,"2022-09-08 01:00:00",SAMARINDA,"MUARA BERAU ANCH",9387358,Cargo,"2022-09-08 13:51:30",-0.2633333,117.595
Indonesia,"ORIENT PLUTO",SURABAYA,"2022-01-10 20:00:00",SURABAYA,,9213947,Cargo,"2022-09-08 13:48:15",-7.115,112.6667
Indonesia,"NIKI SEJAHTERA",SURABAYA,"2022-07-09 23:00:00",SURABAYA,SURABAYA,8908789,Cargo,"2022-09-08 13:47:49",-7.196784,112.7301
Indonesia,RHONE,DUMAI,"2022-09-04 22:30:00",DUMAI,"DUMAI ANCH",9215086,Tanker,"2022-09-07 15:26:03",1.712567,101.4544
Indonesia,"MANALAGI TARA",KALIORANG,"2022-09-06 12:00:00",KALIORANG,KALIORANG,9330422,Cargo,"2022-09-08 13:53:10",0.790455,117.8846
Indonesia,"MERATUS TOMINI","CAGAYAN DE ORO",-,PHCGY,,9374583,Cargo,"2022-09-08 13:26:14",14.05371,119.3647
Indonesia,"DHARMA RUCITRA VII",,"2022-09-08 11:00:00","WAE KELAMBU",,9083627,Cargo,"2022-09-08 13:41:59",-8.324415,121.3488
Indonesia,"HARMONI MAS 8",PALEMBANG,"2022-09-06 14:30:00",PALEMBANG,,9100358,Cargo,"2022-09-08 13:52:53",-2.186667,104.9283
Indonesia,"QUANTUM HARMONY","TELUK SEMANGKA","2022-09-07 15:00:00","TLK SEMANGKA","TELUK SEMANGKA ANCH",9418054,Tanker,"2022-09-08 11:13:08",-5.5501,104.593
Indonesia,"PNS SERENA",CILACAP,-,"ID CXP",,9302968,Tanker,"2022-09-08 13:28:20",19.22301,64.27393
Indonesia,PETROGARUDA,CHITTAGONG,"2022-03-08 10:00:00","BD CGP","CHITTAGONG BREAKYARD",9248837,Tanker,"2022-03-20 09:19:10",22.45381,91.72213
Indonesia,"MARIA NASHWAH",MUARA,-,"MUARA BERAU",SURALAYA,9214123,Cargo,"2022-09-08 13:52:32",-5.883823,106.0292
Indonesia,"PELITA ENERGY",,"2022-09-02 03:00:00","ID PTB",,9161510,Tanker,"2022-09-08 13:51:49",-6.193333,107.9433
Indonesia,RASHAD,,"2022-09-06 04:00:00",M.BERAU,"MUARA BERAU ANCH",9220718,Cargo,"2022-09-08 13:51:42",-0.2665,117.5692
Indonesia,"GUNUNG DEMPO",NABIRE,"2022-09-08 11:00:00",NABIRE.ID,,9401324,Passenger,"2022-09-08 13:51:07",-1.465572,138.1305
Indonesia,"NORDIC BAHARI",SURABAYA,"2022-08-24 10:00:00",SURABAYA,SURABAYA,8203153,"Special Craft","2022-09-08 13:53:03",-7.201667,112.74
Indonesia,NARIVA,KOTABARU,-,"KOTA BARU",,9172715,Tanker,"2022-09-08 13:38:46",-5.024034,115.361
Indonesia,"JHONI XLIX",,"2022-09-04 14:00:00",MATARAPE,KENDARI,9590735,Cargo,"2022-09-08 13:48:37",-3.849527,122.5339
Indonesia,"COSMIC 20","SINGAPORE ANCH","2022-09-02 12:00:00",AWPA/SGP,"SINGAPORE ANCH",9128855,Tanker,"2022-09-08 13:52:50",1.244762,103.7965
Indonesia,"MERATUS PARIAMAN","PORT KLANG",-,MYPKG,,9371957,Cargo,"2022-09-08 13:53:17",3.905,98.87833
Indonesia,"MANALAGI ASTA",CILACAP,"2022-09-04 18:00:00","ID CILACAP","CILACAP ANCH",9200653,Cargo,"2022-09-08 12:09:30",-7.742355,109.1112
Indonesia,"SC EXPRESS LV",SURABAYA,-,SURABAYA,,9228849,Tanker,"2022-09-08 13:30:54",3.747902,99.27129
Indonesia,"FAJAR BAHARI III",JAKARTA,-,"ID MARUNDA",,9730282,Cargo,"2022-09-08 13:50:37",-0.148865,108.9319
Indonesia,"SHIP TRINITY",,-,"IBT PULAU LAUT",,9212395,Tanker,"2022-09-08 13:43:23",-6.95095,116.3369
Indonesia,"SUPREME STAR","TANJUNG PELEPAS","2022-08-31 03:00:00","MY TPP","TANJUNG PELEPAS ANCH",9265407,Tanker,"2022-09-08 13:53:09",1.271517,103.597
Indonesia,"FAJAR BAHARI II",JAKARTA,"2022-03-07 19:00:00",MARUNDA,JAKARTA,9647722,Cargo,"2022-09-08 13:52:11",-6.077265,106.9716
Indonesia,"SULAWESI LEADER",BALIKPAPAN,"2022-09-08 13:00:00",BALIKPAPAN,"BALIKPAPAN BAY ANCH",9087764,Cargo,"2022-09-08 13:52:17",-1.306782,116.8208
Indonesia,"NIKI SAE",,"2022-07-26 00:00:00","S U R A B A Y A",,9115066,Passenger,"2022-09-08 13:27:05",-8.450838,119.9145
Indonesia,"KRI DEWARUCI",PALEMBANG,,"No data (CLASS B transponder)",JAKARTA,0,"Sailing Vessel","2022-09-08 03:20:25",-6.104823,106.8925
Indonesia,LABOBAR,,"2022-08-10 15:30:00",JAMUANG,,9281542,Passenger,"2022-09-08 13:26:49",-7.106228,112.6618
Indonesia,"COSMIC 10","BATU AMPAR","2022-08-02 11:30:00",BATAM,"BATU AMPAR",9460344,Tanker,"2022-08-06 06:15:37",1.068008,103.9044
Indonesia,EMERYN,"PORT KLANG","2022-09-08 20:00:00","MY PKG",,9291315,Tanker,"2022-09-08 13:54:03",2.366883,101.766
Indonesia,URMILA,"ADANG BAY","2022-09-07 14:00:00","ADANG BAY",,9285160,Cargo,"2022-09-08 13:44:57",-1.689455,116.6878
Indonesia,"DHARMA LAUTAN INTAN",NAGA,"2022-08-18 09:00:00","NAGAN RAYA0-ACEH","MEULABOH ANCH",9284491,Cargo,"2022-09-06 20:02:49",4.069344,96.13725
Indonesia,"NIKI BAROKAH",BANJARMASIN,"2022-09-08 20:38:00",SURABAYA,,8210015,Passenger,"2022-09-08 12:40:31",-4.985448,113.7907
Indonesia,"PRIMA TANGGUH LVI","BATU AMPAR","2022-08-08 12:00:00",BATAM,"BATU AMPAR",9223253,Tanker,"2022-09-08 13:41:08",1.096353,103.9087
Indonesia,"MM SEJATI",MAKASSAR,-,MAKASSAR,,8822117,Cargo,"2022-09-08 13:31:03",-5.680905,109.5336
Indonesia,"MDM BATUR","RAS LAFFAN","2022-09-01 23:50:00","QA RLF","RAS LAFFAN",9347944,Cargo,"2022-09-08 13:50:26",25.92563,51.6057
Indonesia,KAMADIYA,BAHUDOPI,"2022-09-08 16:00:00",MOROWALI,,9360013,Cargo,"2022-09-08 10:43:41",-2.7757,122.1143
Indonesia,"MILA UTAMA",SURABAYA,"2022-09-03 23:00:00",SURABAYA,,8808082,Cargo,"2022-09-08 13:50:55",-3.500402,114.5004
Indonesia,"GREEN STARS",TELUKBAYUR,-,TELUK-KABUNG,,9217448,Tanker,"2022-09-08 13:08:58",-1.217333,106.2583
Indonesia,PETROMAX,MUNTOK,"2022-09-04 15:00:00",MUNTOK,"MUNTOK ANCH",9295050,Tanker,"2022-09-08 13:53:43",-2.063333,105.0683
Indonesia,"PRIMA LAUTAN 2",,"2022-09-02 12:30:00","ID P.SUSU","PANGKALAN SUSU ANCH",9284831,Tanker,"2022-09-08 13:35:49",4.249933,98.38955
Indonesia,DEFIANCE,BELAWAN,"2021-10-13 19:18:00","ID BELAWAN","BELAWAN ANCH",9247974,Tanker,"2022-02-18 05:23:39",3.8858,98.80106
Indonesia,"GREEN PARK",BITUNG,-,BITUNG,,9276262,Tanker,"2022-09-08 13:45:57",-1.640698,117.3918
Indonesia,"MERATUS PAYAKUMBUH",WINI,"2022-09-04 12:00:00",WINI,,9371907,Cargo,"2022-09-08 13:43:15",-7.515,114.8217
Indonesia,"EDRICKO 2",BENGKULU,"2022-09-07 15:00:00",BENGKULU,BENGKULU,9031909,Tanker,"2022-09-08 11:45:07",-3.911017,102.2943
Indonesia,"MERATUS AMPANA",BELAWAN,"2022-08-07 06:00:00",ID-BELAWAN,"BELAWAN ANCH",9262950,Cargo,"2022-09-08 13:50:33",3.905,98.78
Indonesia,"LCT PUTRA BAWEAN 01",,,"No data (CLASS B transponder)",,0,Cargo,"2022-08-23 19:18:45",-1.821535,116.8593
Indonesia,"LUMOSO KARUNIA IX",AMAMAPARE,"2022-07-23 02:00:00","AMAMAPARE ID",AMAMAPARE,9397884,Cargo,"2022-09-08 13:50:36",-4.828084,136.815
Indonesia,"PACIFIC DEFIANCE","MUARA ANCH","2022-09-07 17:13:00",PVD5,,9456197,"Special Craft","2022-09-08 03:30:56",5.252302,114.77
Indonesia,"IDN WARSHIP 361",DEEP,"2022-04-12 17:00:00","DEEP SEA",,9334052,"Special Craft","2022-08-26 01:33:20",4.16164,117.9506
Indonesia,"SURF ALLAMANDA",,"2022-09-06 06:00:00","FPU JANGKRIK",,9639866,"Special Craft","2022-09-08 13:50:15",-1.161667,117.78
Indonesia,"TRANSKO AQUILA",CILACAP,-,CILACAP,,9216042,Tanker,"2022-09-08 13:53:25",-8.086503,114.4306
Indonesia,"SC CHAMPION XLV",TUBAN,"2022-05-08 05:00:00",TUBAN.TPPI,,9215048,Tanker,"2022-09-07 18:38:06",-6.711667,112.1517
Indonesia,CIREMAI,JAKARTA,"2022-07-24 14:00:00",TG.PRIOK,JAKARTA,9032135,Passenger,"2022-09-08 13:54:11",-6.094175,106.8798
Indonesia,"SJW MOUNTAIN",,"2022-09-06 16:00:00",DAWAI,,9193824,Cargo,"2022-09-08 13:48:29",-1.828668,136.7686
Indonesia,"BULL SUMBAWA",,"2021-11-23 21:59:00",BYE,"CHITTAGONG BREAKYARD",9219276,Tanker,"2021-12-04 23:25:01",22.44312,91.72789
Indonesia,"HAM 311",PENGERANG,"2022-09-08 14:27:00",PANGERANG-MSA,,9100700,"Special Craft","2022-09-08 13:53:32",1.314255,104.2068
Indonesia,"CTP MAKASSAR",DAVAO,-,DAVAO,,9181742,Cargo,"2022-09-08 13:33:30",2.3983,106.9326
Indonesia,"SUCCESS FORTUNE XL",CILACAP,"2022-08-02 09:00:00",CILACAP,"CILACAP ANCH",9243150,Tanker,"2022-09-08 10:03:12",-7.819467,109.0931
Indonesia,"CTP FORTUNE",SINGAPORE,-,SIN/PEBGA,,9181730,Cargo,"2022-09-08 13:26:59",0.1731133,105.6895
Indonesia,"DA DE 1",,"2022-08-08 23:00:00",SBY,,9869502,Passenger,"2022-09-08 13:53:38",-6.943333,114.255
Indonesia,"MALAHAYATI BARUNA",,"2022-08-15 19:00:00","TELUK SIRIH","TELUKBAYUR ANCH",9302839,Cargo,"2022-09-08 13:52:48",-1.028333,100.365
Indonesia,"BUKIT SIGUNTANG",TARAKAN,"2022-09-08 06:00:00",TARAKAN,,9124536,Passenger,"2022-09-07 22:04:29",2.934987,118.083
Indonesia,"MARIANNA GOLDEN",PARADIP,-,INPRT,,9166766,Tanker,"2022-09-08 13:32:45",18.71167,88.55833
Indonesia,"SCARLET MELINDA",SEMARANG,"2022-09-07 19:30:00","ID SEMARANG",SEMARANG,9271236,Tanker,"2022-09-07 11:56:38",-6.885,110.4283
Indonesia,"EXPLORINDO 1",CHITTAGONG,"2021-09-21 12:00:00",BD.CHITTAGONG,"CHITTAGONG BREAKYARD",9230854,Tanker,"2021-10-06 09:32:56",22.44346,91.72662
Indonesia,NECTAR,TUBAN,"2022-09-07 03:18:00","ID TUBAN","TUBAN ANCH",9301017,Tanker,"2022-09-08 13:46:36",-6.715,111.8883
Indonesia,NATASCHA,"MUARA PANTAI","2022-09-01 23:40:00","MUARA PANTAI","MUARA PANTAI",9478561,Cargo,"2022-09-08 13:19:29",2.0089,118.1659
Indonesia,PANGRANGO,AMBON,"2022-09-08 07:00:00","AMBON MANISE",,9072123,Passenger,"2022-09-08 13:16:29",-3.85399,129.4808
Indonesia,YVONNE,"BATU AMPAR","2021-04-16 10:00:00",BATAM,"BATU AMPAR",9631498,"Special Craft","2021-08-24 05:31:07",1.098248,103.8965
Indonesia,"MANALAGI PRITA",,"2022-09-02 03:00:00","ID TG.JATI","TANJUNG JATI",9363455,Cargo,"2022-09-08 10:15:49",-6.433098,110.7292
Indonesia,"DEWI AMBARWATI",,"2022-09-08 12:30:00","HIGH SEAS",,9528861,Cargo,"2022-09-08 13:48:58",20.5757,106.8567
Indonesia,"BIMA SUCI",SYDNEY,-,SYDNEY,,9792319,"Special Craft","2022-09-08 13:54:02",-33.85243,151.2364
Indonesia,UMSINI,JAKARTA,-,TG.PRIOK,,8303264,Passenger,"2022-09-08 13:52:53",0.3783333,104.7817
Indonesia,"SC ETERNITY XLVII",CIWANDAN,"2022-09-06 01:00:00",ANYER/IDN,"MERAK ANCH",9151448,Tanker,"2022-09-08 13:50:33",-5.958333,105.9883
Indonesia,"MERATUS PADANG",JAKARTA,-,JAKARTA,,9520493,Cargo,"2022-09-08 13:48:11",-4.893333,112.535
Indonesia,NADHIF,AMAMAPARE,-,"ID AMA",,9254551,Cargo,"2022-09-08 13:53:51",-5.217575,124.3111
Indonesia,LEUSER,,"2022-09-09 02:00:00",L.BAJO,,9032159,Passenger,"2022-09-08 13:52:07",-7.875,119.6733
Indonesia,"OVERSEAS PETROMAR",MANGGIS,"2022-08-30 22:00:00",TG.MANGGIS,,9222170,Tanker,"2022-09-08 13:33:35",-8.52394,115.5648
Indonesia,"PGN FSRU LAMPUNG",BAKAUHENI,"2022-05-08 15:00:00","OFF LAMPUNG",,9629524,Tanker,"2022-09-08 13:32:25",-5.443333,105.94
Indonesia,"SAGAR MANTHAN",PENGERANG,"2022-08-12 09:00:00",PENGERANG,PENGERANG,9165073,"Special Craft","2022-09-08 13:51:35",1.330077,104.1783
Indonesia,"SUMATERA LEADER",,-,DPL,,8822090,Cargo,"2022-09-08 13:12:10",-6.845178,112.4297
Indonesia,"QUEEN CENTURY",,"2022-09-06 02:00:00",BANYAN,SINGAPORE,9354519,Tanker,"2022-09-08 13:51:31",1.276903,103.7404
Indonesia,"MANALAGI ASTI",CILACAP,"2022-09-03 11:00:00","ID CILACAP",,9200665,Cargo,"2022-09-08 13:07:56",-7.694873,109.0888
Indonesia,"HI 03",KARIMUN,"2022-07-13 12:00:00",KARIMUN,,9242508,Cargo,"2022-09-08 13:53:26",1.004633,103.3292
Indonesia,LAMBELU,BALIKPAPAN,"2022-09-08 19:00:00",BALIKPAPAN,,9124548,Passenger,"2022-09-08 13:53:37",-1.325965,116.8293
Indonesia,"SC ENTERPRISE LIX",TUBAN,"2022-09-01 10:00:00","TPPI TUBAN","TUBAN ANCH",9200835,Tanker,"2022-09-08 12:25:39",-6.653467,111.9725
Indonesia,KAREEM,MUARA,"2022-09-02 15:00:00","MUARA BERAU","MUARA BERAU ANCH",9266097,Cargo,"2022-09-08 13:51:18",-0.2226017,117.5394
Indonesia,"TANTO BAGUS",MAKASSAR,-,"ID MAK",,9210725,Cargo,"2022-09-08 13:28:17",-5.797515,116.6981
Indonesia,"PHOENIX ALPHA XXXV","TELUK SEMANGKA","2022-09-02 06:00:00","TELUK SEMANGKA","TELUK SEMANGKA ANCH",9242211,Tanker,"2022-09-08 13:17:11",-5.551667,104.5933
Indonesia,"KM. DHARMA FERRY V",SURABAYA,"2022-04-26 09:00:00","INDONESIA SURABAYA",SURABAYA,9145865,Passenger,"2022-09-08 13:53:36",-7.19812,112.7376
Indonesia,"STAR VALIANT",DUMAI,"2022-09-08 15:30:00",DUMAI,,9267364,Tanker,"2022-09-08 13:53:56",1.7972,101.8598
Indonesia,"LUMOSO SURYA","PANGKALAN SUSU","2022-08-29 18:00:00","PANGKALAN SUSU","PANGKALAN SUSU ANCH",9238222,Cargo,"2022-09-08 13:31:24",4.229033,98.4214
Indonesia,"ASIAN WISDOM",,"2022-08-30 14:00:00",MATARAPE,KENDARI,9224659,Cargo,"2022-09-07 18:07:53",-3.831885,122.5238
Indonesia,ENDEAVOUR,,"2022-09-06 06:00:00","SURVEY OPERATION",,9474424,"Special Craft","2022-09-08 13:53:34",-11.07816,122.1702
Indonesia,"LUMOSO BERKAT","TABONEO ANCH","2022-09-09 00:30:00","ID TABONEO",,9346055,Cargo,"2022-09-08 13:40:57",-4.031557,114.4508
Indonesia,"AMARIN INDAH","TANJUNG PELEPAS","2022-09-08 07:30:00",TG.PELEPAS,"TANJUNG PELEPAS ANCH",9299941,Tanker,"2022-09-08 13:49:00",1.249,103.5259
Indonesia,"MERATUS PANGKALPINANG",MAKASSAR,"2022-09-08 12:00:00",MAKASSAR,MAKASSAR,9371945,Cargo,"2022-09-08 13:53:09",-5.132487,119.4021
Indonesia,"LUMOSO JAYA",,"2022-09-05 06:00:00",TG.PEMANCINGAN,"PEMANCINGAN ANCH",9244283,Cargo,"2022-09-08 13:19:48",-3.207767,116.3717
Indonesia,AIKATERINI,KOTABARU,"2022-09-08 01:00:00",KOTABARU,"PEMANCINGAN ANCH",9222168,Tanker,"2022-09-08 12:31:42",-3.22,116.3383
Indonesia,"KMP. B R R",,-,"ULEE LHEUE B.ACEH",BALOHAN,9549475,Passenger,"2022-09-08 11:21:35",5.823712,95.34625
Indonesia,"MANALAGI ENZI","ADANG BAY","2022-09-06 02:00:00","ADANG BAY","ADANG BAY",9217929,Cargo,"2022-09-08 13:53:23",-1.712002,116.6548
Indonesia,AMETHYST,PAITON,-,PAITON,,9237943,Cargo,"2022-09-08 13:30:48",-6.208983,114.8455
Indonesia,"TANTO DAMAI",MAKASSAR,"2022-08-27 19:00:00","ID UPG",,9138666,Cargo,"2022-09-08 13:09:01",-5.903975,119.0623
Indonesia,"LUMOSO PRATAMA","MUARA PANTAI","2022-09-04 08:00:00","MUARA PANTAI","MUARA PANTAI",9570474,Cargo,"2022-09-08 13:31:10",1.986283,118.1494
Indonesia,"SHIP 111",,"2022-03-10 14:00:00","KEEP CLEAR 0.8 NM","MUNTOK ANCH",9317717,Tanker,"2022-09-01 03:50:43",-2.03495,105.0649
Indonesia,"RHAEO RAPID","PULAU SAMBU","2022-09-01 08:00:00",SAMBU,"BATU AMPAR ANCH",9434670,Tanker,"2022-09-08 13:50:58",1.163383,103.9499
Indonesia,"HABCO CARINA",MUARA,-,"MUARA BERAU",,9497866,Cargo,"2022-09-08 13:48:15",1.753333,123.7717
Indonesia,"MBS BALURAN",BUNATI,"2022-09-01 20:00:00","BUNATI. ID",BUNATI,9347920,Cargo,"2022-09-08 13:28:10",-3.893333,115.7383
Indonesia,"STRAIT MAS",SHEKOU,-,CNSKU,,9252369,Cargo,"2022-09-08 13:52:55",29.62527,122.8605
Indonesia,"SUNGAI MAS",JAKARTA,-,IDJKT,,9178549,Cargo,"2022-09-08 13:53:45",1.632867,102.7884
Indonesia,"PRINCESS NAOMI",MERAK,"2022-06-07 17:45:00",MERAK,KETAPANG,9126273,Tanker,"2022-09-08 13:54:19",-8.126133,114.3992
Indonesia,"PACIFIC BULK",BUNATI,"2022-08-29 00:00:00",BUNATI,KENDARI,9237137,Cargo,"2022-09-08 13:50:26",-3.839112,122.5275
Indonesia,"LUCIA SOLIS",CHITTAGONG,"2022-09-05 10:30:00",CHITTAGONG,CHITTAGONG,9333187,Tanker,"2022-09-08 13:29:30",22.27062,91.81297
Indonesia,"TANTO SIAP",TUAL,"2022-09-07 18:30:00",TUAL,TUAL,9816464,Cargo,"2022-09-08 13:53:39",-5.634867,132.7409
Indonesia,"JAVA IMPERIA",KABIL,"2022-07-30 18:00:00",KABIL,"TANJUNG UBAN ANCH",8110423,"Special Craft","2022-09-08 13:33:00",1.079073,104.1594
Indonesia,"ANGGREK 601",,"2022-09-05 15:00:00","BELANAK FIELD",,9513878,"Special Craft","2022-09-08 13:30:19",4.180007,106.2126
Indonesia,"LUMOSO LANCAR",CILEGON,"2022-08-19 03:00:00",BOJONEGAGARA.IND,CILEGON,9420289,Cargo,"2022-08-23 07:29:16",-5.9817,106.1115
Indonesia,"CHANDRA KIRANA",,"2022-09-07 06:00:00","IBT,ID","MEKAR PUTIH",9500285,Cargo,"2022-09-08 04:44:47",-4.02836,116.0348
Indonesia,"HABCO POLARIS",MUARA,"2022-09-08 02:00:00","MUARA BERAU","MUARA BERAU ANCH",9487055,Cargo,"2022-09-08 13:51:23",-0.245895,117.5893
Indonesia,"BULL FLORES",MERAK,-,ID-MERAK,,9234680,Tanker,"2022-09-08 13:53:45",-3.673592,128.1748
Indonesia,"KMP LEGUNDI",,"2022-01-31 08:00:00",SAILING,"MERAK ANCH",9765665,Passenger,"2022-09-08 13:52:58",-5.950392,105.9851
Indonesia,"ARIMBI BARUNA",SURALAYA,"2022-09-06 18:00:00",SURALAYA,,9362243,Cargo,"2022-09-08 13:48:07",-5.59975,107.9115
Indonesia,"ALPHA POINT",DUMAI,"2022-09-05 11:48:00","ID DUM",DUMAI,9289489,Tanker,"2022-09-08 12:07:59",1.686455,101.4699
Indonesia,"EDRICKO 8",MAKASSAR,"2022-07-21 01:30:00",LAMONGAN,,9034224,Tanker,"2022-07-30 19:20:16",-6.851666,112.4283
Indonesia,"MANALAGI HITA",SAMARINDA,"2022-09-04 08:00:00","ID SRI","MUARA BERAU ANCH",9317121,Cargo,"2022-09-08 13:44:29",-0.2433917,117.5682
Indonesia,"MANALAGI YASA",CIWANDAN,-,"ID CIWANDAN",,9238313,Cargo,"2022-09-08 13:44:13",-5.727247,121.605
Indonesia,"ANGGREK LAUT","TANJUNG BARA","2022-08-31 17:43:00","TANJUNG BARA","TANJUNG BARA ANCH",9211585,Cargo,"2022-09-08 13:49:59",0.500005,117.6863
Indonesia,"LUMOSO KARUNIA II",AMAMAPARE,"2022-09-04 14:00:00",AMAMAPARE,"AMAMAPARE ANCH",9443803,Cargo,"2022-09-08 13:48:14",-4.93769,136.6437
Indonesia,"PACIFIC ASSEGAI","RAS LAFFAN","2022-09-02 10:01:00","RAS LAFFAN ANCHORAGE","RAS LAFFAN",9358149,"Special Craft","2022-09-08 13:51:38",25.9255,51.60092
Indonesia,"ANDHIKA KANISHKA","MUARA PANTAI","2022-09-02 02:00:00","MUARA PANTAI","MUARA PANTAI",9164641,Cargo,"2022-09-08 13:45:47",2.001667,118.155
Indonesia,OMARRASHEED,JAKARTA,"2022-09-08 16:00:00",TG.PRIOK,JAKARTA,8512217,Cargo,"2022-09-08 13:52:17",-6.098502,106.9124
Indonesia,"CTP DELTA",JAKARTA,"2022-09-08 16:30:00","ID JKT",JAKARTA,8912730,Cargo,"2022-09-08 13:50:53",-6.104245,106.8909
Indonesia,"LUMOSO AMAN",WEDA,-,WEDA,,9263277,Cargo,"2022-09-08 13:14:19",0.4593667,128.0107
Indonesia,"DANUM MAS",TARJUN,"2022-09-06 04:16:00",TARJUN,TARJUN,9371933,Cargo,"2022-09-08 13:41:12",-3.281667,116.105
Indonesia,"SC WARRIOR L",KOTABARU,"2022-08-06 13:30:00",KOTABARU,"PEMANCINGAN ANCH",9162007,Tanker,"2022-09-06 21:52:20",-3.2261,116.3721
Indonesia,"TRANSKO BIMA",CILACAP,"2022-08-07 03:00:00",CILACAP,"CILACAP ANCH",9418951,Tanker,"2022-09-08 13:53:51",-7.743333,109.0467
Indonesia,"MERATUS AMURANG",MAKASSAR,"2022-09-08 21:00:00","ID MAK",,9262962,Cargo,"2022-09-08 13:53:48",-5.373333,118.35
Indonesia,"RASUNA BARUNA",PAITON,"2022-07-09 16:00:00",ID-PAI,,9397834,Cargo,"2022-09-08 13:41:39",-5.154955,115.6618
Indonesia,"PACIFIC HARRIER",,-,JKK12,,9579107,"Special Craft","2022-09-08 13:52:31",-1.309808,117.6837
Indonesia,"GANDAWATI 1",JAKARTA,"2022-09-07 10:30:00",JAKARTA,"JAKARTA ANCH",9214044,Tanker,"2022-09-08 13:54:04",-6.03715,106.9061
Indonesia,SAKTI,TELUKBAYUR,"2022-09-07 15:00:00","TELUK BAYUR",TELUKBAYUR,8717685,Cargo,"2022-09-08 12:48:01",-0.9973233,100.3785
Indonesia,"DHARMA RUCITRA I",BANJARMASIN,-,BANJARMASIN,SEMARANG,8921767,Passenger,"2022-09-06 11:18:13",-6.945265,110.4179
Indonesia,RESOLUTION,,"2022-09-04 22:00:00","ERAWAN FIELD",,9688738,"Special Craft","2022-09-08 13:52:20",8.975,101.3917
Indonesia,"DEWI SHINTA MANGGALA",POHANG,"2022-09-07 07:30:00","KR KPO",POHANG,9528873,Cargo,"2022-09-08 13:53:54",36.01445,129.4183
Indonesia,"TRANSKO ARIES",AMPENAN,"2022-08-09 03:00:00",AMPEMAN,,9216054,Tanker,"2022-09-08 13:53:01",-8.321076,115.9627
Indonesia,GAMSUNORO,MANGALORE,"2022-09-03 02:00:00","NEW MANGALORE, INDIA",MANGALORE,9677313,Tanker,"2022-09-08 13:27:06",12.92083,74.81174
Indonesia,"ALIYAH PERTIWI","BATU AMPAR","2022-07-17 10:00:00",BATAM,"BATU AMPAR",9239991,Cargo,"2022-08-30 10:20:12",1.080983,103.8953
Indonesia,"RATU RUWAIDAH",SURABAYA,"2022-08-25 06:00:00",SURABAYA,"SURABAYA ANCH",9302114,Tanker,"2022-09-06 01:01:59",-6.865829,112.8148
Indonesia,OCEANIA,CHITTAGONG,"2021-08-19 02:00:00",CHITTAGONG,"CHITTAGONG BREAKYARD",9233313,Tanker,"2021-08-23 09:16:34",22.46257,91.71947
Indonesia,"M PATRICIA",TUBAN,"2022-09-07 13:54:00",TUBAN,,9156034,Tanker,"2022-09-08 12:12:50",-6.76342,111.9555
Indonesia,AMMAR,GRESIK,"2022-09-08 23:30:00",GRESIK,GRESIK,9237125,Cargo,"2022-09-08 13:53:48",-7.133333,112.655
Indonesia,"PRIMA XP",,"2022-09-07 15:00:00",PWBGA,,9250153,Tanker,"2022-09-08 13:35:20",3.130987,100.6243
Indonesia,GAMKONORA,,"2022-09-07 23:50:00","OPEN SEA EOPL",,9641091,Tanker,"2022-09-08 13:50:00",1.525,104.805
Indonesia,"CC SEJATI",SURABAYA,"2022-09-09 05:00:00",SURABAYA,"SURABAYA ANCH",9170937,Cargo,"2022-09-08 13:08:40",-6.852283,112.7619
Indonesia,"GIAT JAYA",,"2022-09-08 10:27:00",KALIJAPAT,,9541162,"Special Craft","2022-09-08 11:15:27",-4.934337,106.5109
Indonesia,"NACC COZUMEL",BELAWAN,"2022-08-08 03:00:00",BELAWAN,BELAWAN,9444429,Cargo,"2022-09-08 13:30:37",3.784283,98.70039
Indonesia,"MCC ANDALAS",SIHANOUKVILLE,-,"KH KOS",,9499022,Cargo,"2022-09-08 06:17:04",19.71701,113.7237
Indonesia,"BUKIT RAYA",SURABAYA,"2022-09-07 12:00:00",SURABAYA.ID,,9032173,Passenger,"2022-09-08 08:49:15",-3.866265,110.2542
Indonesia,"NUSANTARA SEJATI",,"2022-03-14 11:00:00",JKT,"SURABAYA RIVER ANCH",8131128,Cargo,"2022-03-31 01:54:48",-7.174943,112.7338
Indonesia,"MERATUS MALINO",BITUNG,"2022-09-06 19:00:00",ID-BIT,BITUNG,9106625,Cargo,"2022-09-08 13:43:07",1.438333,125.1967
Indonesia,"GOLDEN ROSE",BAHUDOPI,"2022-09-05 00:00:00",BAHODOPI,BAHUDOPI,9457866,Cargo,"2022-09-08 04:16:36",-2.810123,122.1615
Indonesia,"YELLOW PARK",MAKASSAR,-,MAKASSAR,,9276250,Tanker,"2022-09-08 13:33:49",-5.598475,109.7435
Indonesia,"GRIYA CIREBON",,"2022-03-10 18:00:00",BLPP,,9279587,Tanker,"2022-09-08 13:31:32",-5.110667,110.3713
Indonesia,"MANALAGI DASA","TANJUNG JATI","2022-09-06 06:00:00","TANJUNG JATI","TANJUNG JATI",9217668,Cargo,"2022-09-07 21:35:56",-6.432617,110.7257
Indonesia,"MERATUS MEDAN 1",CJK,"2022-09-08 05:00:00","CN CJK-SHA",,9146651,Cargo,"2022-09-08 13:41:00",30.97607,122.9501
Indonesia,"DEWI SARASWATI",KHALIFA,"2022-08-29 08:00:00",KHALIFA,KHALIFA,9527881,Cargo,"2022-09-08 13:51:36",24.80169,54.65491
Indonesia,FORUM,,"2022-08-28 10:00:00",MATARAPE,,9214850,Cargo,"2022-09-08 13:51:47",-3.318333,122.3283
Indonesia,"ORIENTAL GALAXY",BALIKPAPAN,"2022-09-07 13:00:00",IDBPN,KARIANGAU,9120920,Cargo,"2022-09-08 13:51:39",-1.162932,116.7797
Indonesia,"MONICA P",,"2022-08-29 18:00:00",TG.PEMANCINGAN,"PEMANCINGAN ANCH",9179218,Cargo,"2022-09-08 06:55:25",-3.209883,116.3285
Indonesia,"ROSA DINI",JAKARTA,"2022-09-07 23:00:00","ID JKT",JAKARTA,9240718,Tanker,"2022-09-08 13:53:05",-6.099228,106.9059
Indonesia,"LOGISTIK NUSANTARA 3",,"2022-09-08 03:00:00",JAILOLO,,9474981,Cargo,"2022-09-08 13:51:36",1.015,127.49
Indonesia,"DAIDAN MUSTIKAWATI",KALIORANG,"2022-09-05 15:00:00",KALIORANG,KALIORANG,9302827,Cargo,"2022-09-08 13:53:12",0.7772833,117.9088
Indonesia,"MERATUS MAMIRI",BELAWAN,"2022-09-06 20:00:00","ID BLW",,9106649,Cargo,"2022-09-08 13:35:14",3.794482,98.71595
Indonesia,"SG BAHARI",BONTANG,-,BONTANG-IDN,,9408360,Tanker,"2022-09-08 13:30:13",-2.161667,108.8867
Indonesia,"ARFIANIE AYU",PENANG,"2022-08-30 21:00:00",TG:PETANG,,9403164,Cargo,"2022-09-08 13:46:36",-3.828333,115.9117
Indonesia,"ADHIGUNA TARAHAN",TARAHAN,"2022-09-05 23:00:00","TARAHAN PANJANG",SURALAYA,8324232,Cargo,"2022-09-08 13:52:17",-5.888587,106.0285
Indonesia,"CTP GOLDEN",JAKARTA,"2022-09-05 04:00:00","ID JKT",JAKARTA,9159098,Cargo,"2022-09-08 12:21:56",-6.104202,106.8788
Indonesia,"SAMUDRA SAKTI I",BELAWAN,"2022-09-06 20:00:00","BELAWAN ID","BELAWAN ANCH",9238258,Cargo,"2022-09-08 13:33:51",3.93565,98.75648
Indonesia,"DK 03",CILACAP,"2022-08-24 03:00:00",CILACAP,"CILACAP ANCH",9082908,Cargo,"2022-09-08 08:50:10",-7.750913,109.1014
Indonesia,MUBASYIR,KALIORANG,"2022-09-04 22:00:00",KALIORANG,KALIORANG,9493937,Cargo,"2022-09-08 13:51:55",0.7885267,117.9105
Indonesia,OSTINA,,-,PATIMBAN,,9059901,Cargo,"2022-09-08 13:33:42",-1.741152,105.0409
Indonesia,SAWAHLUNTO,SINGAPORE,"2022-09-08 10:00:00",SINGAPORE,"SINGAPORE ANCH",9692234,Cargo,"2022-09-08 13:33:05",1.252603,103.8735
Indonesia,"ORIENTAL GOLD",JAYAPURA,"2022-09-09 01:30:00","ID DJJ",,9136591,Cargo,"2022-09-08 13:53:37",-2.239415,140.0794
Indonesia,"SARTIKA BARUNA",TARAHAN,"2022-09-07 13:15:00",ID-TARAHAN,TARAHAN,9219898,Cargo,"2022-09-08 13:53:42",-5.515,105.3417
Indonesia,"EDRICKO 6",CIWANDAN,"2022-09-08 08:00:00","CIWAMDAN INA","CIWANDAN ANCH",9146833,Tanker,"2022-09-08 13:47:23",-6.009442,105.9365
Indonesia,PERKASA,TELUKBAYUR,-,"TELUK BAYUR",,8109204,Cargo,"2022-09-08 13:37:17",4.021183,96.0776
Indonesia,KEI,KETAPANG,"2022-09-07 03:00:00","TG WNGI",,9475387,Tanker,"2022-09-08 11:59:00",-8.00426,114.4502
Indonesia,"GOLDEN REJEKI",MAKASSAR,"2022-08-30 01:00:00",MAKASSAR,MAKASSAR,9480966,Cargo,"2022-09-08 13:52:53",-5.126717,119.406
Indonesia,"LUMOSO ALAM","TABONEO ANCH","2022-09-08 06:00:00",TABONEO,"TABONEO ANCH",9216688,Cargo,"2022-09-08 13:50:50",-3.688883,114.443
Indonesia,"VEGA 1",BALIKPAPAN,-,"ID BALIKPAPAN",,9478107,Tanker,"2022-09-08 13:40:57",-4.19373,115.852
Indonesia,"ORIENTAL EMERALD",JAKARTA,"2022-09-08 09:00:00",JAKARTA,"JAKARTA ANCH",9146077,Cargo,"2022-09-08 13:52:24",-6.036077,106.8994
Indonesia,"WEDA PIONEER",JAKARTA,"2022-08-03 09:00:00",TJ.PRIOK,"JAKARTA ANCH",9417476,Tanker,"2022-09-08 13:52:16",-6.043366,106.8961
Indonesia,"FAJAR BAHARI V",JAKARTA,-,MARUNDA,,9841251,Cargo,"2022-09-08 11:29:41",-4.022573,114.2252
Indonesia,"LUNA ERAWAN","TELUK SEMANGKA","2022-09-06 09:30:00","TELUK SEMANGKA","TELUK SEMANGKA ANCH",9296810,Tanker,"2022-09-08 09:21:04",-5.545162,104.6225
Indonesia,"HIJAU SAMUDRA",JAKARTA,"2022-09-07 16:00:00",IDJKT,JAKARTA,9101560,Cargo,"2022-09-08 13:52:56",-6.100214,106.8826
Indonesia,ADRIA,MERAK,"2022-09-06 07:30:00",MERAK,"SURALAYA ANCH",9268540,Tanker,"2022-09-08 13:51:58",-5.892684,106.0015
Indonesia,"DHARMA FERRY VIII","LEMBAR ANCH","2022-09-07 17:50:00",LEMBAR,"LEMBAR ANCH",9037941,Passenger,"2022-09-07 14:31:00",-8.745513,116.0493
Indonesia,"GOLDEN ACE",JAKARTA,"2022-09-08 19:00:00","ID TG. PERAK","JAKARTA ANCH",9296767,Cargo,"2022-09-08 13:51:56",-6.008817,106.9063
Indonesia,"SUCCESS DALIA XLVIII",SINGAPORE,-,SGPEBGC,,9236729,Tanker,"2022-09-08 13:30:53",-0.5588284,105.9698
Indonesia,"SATYA KENCANA III",KUMAI,"2022-09-09 04:00:00",KUMAI,,8904563,Passenger,"2022-09-08 11:53:33",-4.383117,111.9164
Indonesia,SAMI,MUARA,-,"MUARA BERAU",,9265512,Cargo,"2022-09-08 13:53:40",-5.749558,120.0717
Indonesia,"MAXIMUS I",BAYAH,-,"BAYAH IDN",,9260653,Cargo,"2022-09-08 13:09:47",-0.18734,103.9032
Indonesia,"DAIDAN PERTIWI",,"2022-09-05 12:00:00",PEMANCINGAN,"PEMANCINGAN ANCH",9302798,Cargo,"2022-09-08 13:28:03",-3.19765,116.3809
Indonesia,"PANCARAN NUSANTARA",TUBAN,"2022-09-08 22:00:00","ID TBN",,9354492,Tanker,"2022-09-08 13:48:07",-6.637816,111.9325
Indonesia,"SINAR MARATUA",BATULICIN,-,BATULICIN,,9276327,Tanker,"2022-09-08 12:16:41",-0.6591,117.8411
Indonesia,"ERAWAN 10",WAYAME,"2022-09-08 16:00:00","ID WAYAME","AMBON ANCH",9275983,Tanker,"2022-09-08 13:52:33",-3.680183,128.1428
Indonesia,TILONGKABILA,BIMA,-,BIMA,,9102760,Passenger,"2022-09-08 13:50:54",-8.155,116.385
Indonesia,"SEA BASS","PULAU SAMBU","2022-08-19 22:30:00","PULAU SAMBU","BATU AMPAR ANCH",9387190,"Special Craft","2022-09-08 13:52:39",1.159283,103.9342
Indonesia,LAWIT,JAKARTA,"2022-08-26 03:15:00","TG.PRIOK ID",JAKARTA,8502353,Passenger,"2022-09-07 08:35:19",-6.094188,106.8804
Indonesia,"ORIENTAL JADE",MAKASSAR,"2022-09-08 15:00:00",MAKASSAR,MAKASSAR,8902137,Cargo,"2022-09-08 13:53:21",-5.097035,119.4154
Indonesia,"SERASI V",BELAWAN,-,BELAWAN,,9039573,Cargo,"2022-09-08 13:49:23",0.5219266,103.7627
Indonesia,"SIMFONI SEJATI",,-,BPPN,,9197612,Cargo,"2022-09-08 06:25:18",-5.053308,113.0889
Indonesia,"MANALAGI SAMBA",,-,"ID BAHODOPI",,9254501,Cargo,"2022-09-08 13:36:49",-4.105233,112.3705
Indonesia,"NEW WINNER",KUPANG,"2022-09-06 03:48:00","ID KUPANG",KUPANG,9213193,Tanker,"2022-09-08 13:02:30",-10.20372,123.5275
Indonesia,"ETERNAL OIL II",MUNTOK,"2022-09-08 21:00:00",MUNTOK,,9159828,Tanker,"2022-09-08 13:53:15",-2.198333,104.9233
Indonesia,"CTP HONOUR",JAKARTA,-,"TG PRIOK JAKARTA",,9150925,Cargo,"2022-09-08 13:45:13",-5.495548,114.9576
Indonesia,"TANTO TENANG",MAKASSAR,"2022-09-08 07:00:00",MAKASSAR,MAKASSAR,9192040,Cargo,"2022-09-08 13:51:48",-5.12915,119.4042
Indonesia,"LUMOSO HAWARI",,"2022-09-06 12:00:00",S2LIRA,,9405473,Cargo,"2022-09-08 13:09:23",-5.64194,107.4927
Indonesia,"ARMADA SERASI",JAKARTA,"2022-09-08 20:00:00",JAKARTA,"JAKARTA ANCH",9000675,Cargo,"2022-09-08 13:53:34",-6.00757,106.9006
Indonesia,MARINER,MAKASSAR,-,"ID MAK",,9178678,Tanker,"2022-09-08 13:27:45",-6.722217,116.753
Indonesia,"EDRICKO 1",GARONGKONG,"2022-08-28 06:00:00",GARONGKONG,,8223505,Tanker,"2022-08-25 02:57:53",-4.327025,119.5007
Indonesia,VERIZON,SURABAYA,"2022-09-08 17:00:00","ID JKT",,9109988,Cargo,"2022-09-08 13:09:17",-6.151937,110.3857
Indonesia,"ALIYAH PRATAMA","ASAM ASAM",-,ASAM-ASAM,,9216810,Cargo,"2022-09-08 13:26:35",-1.658767,108.0135
Indonesia,"DARYA MAJU","BATU AMPAR","2022-08-11 09:00:00",BATAM,"BATU AMPAR",8413021,Cargo,"2022-09-08 13:49:38",1.05603,103.9086
Indonesia,"AMANAH MOROWALI AMC",,-,"ID BAHODOPI",,9233478,Cargo,"2022-09-08 13:53:19",-5.736053,122.6513
Indonesia,"NAVIGATOR GLOBAL",JAKARTA,"2022-09-07 20:00:00","TG PRIOK","JAKARTA ANCH",9536375,Tanker,"2022-09-08 13:53:15",-5.988472,106.9221
Indonesia,"PORT LINK III",BAKAUHENI,"2022-06-27 12:28:00","BAKAUHENI - MERAK",CILEGON,8604333,Passenger,"2022-09-05 04:22:21",-5.979787,106.107
Indonesia,"PERTAMINA GAS 2",BATEN,-,BANTEN.IDN,,9685217,Tanker,"2022-09-08 13:52:03",-21.87215,-11.11074
Indonesia,HIPPO,,"2022-01-19 08:24:00",IDBELAWAN,BELAWAN,9134713,Tanker,"2022-02-09 09:06:18",3.782755,98.70322
Indonesia,"PIS PATRIOT",KOTABARU,"2022-09-03 16:00:00",KOTABARU,KOTABARU,9419670,Tanker,"2022-09-08 11:45:12",-3.253122,116.2004
Indonesia,"HANYU GLORY",GRESIK,"2022-09-04 23:00:00",GRESIK,GRESIK,9253454,Tanker,"2022-09-08 13:50:17",-7.143967,112.6593
Indonesia,"ISA GOLDEN",,"2022-09-06 03:00:00","J23 SG",SINGAPORE,9116292,Cargo,"2022-09-06 08:40:30",1.302762,103.7192
Indonesia,"MERATUS KUPANG","JAKARTA ANCH",-,"MY PKG > ID JKT",,9155511,Cargo,"2022-09-08 13:37:03",2.813177,101.2457
Indonesia,"DA DE 2",LEMBAR,"2022-09-08 23:00:00",LEMBAR,,9895056,Passenger,"2022-09-08 13:53:27",-8.351825,115.7519
Indonesia,"TANKER VICTORY",BELAWAN,"2022-07-25 17:00:00",BELAWAN,"BELAWAN ANCH",9112234,Tanker,"2022-09-08 13:31:55",3.881667,98.77333
Indonesia,"LUMOSO HARMONI",BUNATI,-,"BUNATI ID",,9405461,Cargo,"2022-09-08 13:48:32",-5.363587,120.7119
Indonesia,"DK 02",CILACAP,"2022-09-01 20:00:00",CILACAP,,9154555,Cargo,"2022-09-08 13:08:36",-7.835778,108.2717
Indonesia,"GUNUNG GEULIS/PERTAMINA 8004",,"2022-03-15 09:00:00",TERMINAL:CINTA,,9398278,Tanker,"2022-09-08 12:41:33",-5.423678,106.2358
Indonesia,"DHARMA FERRY IX",LEMBAR,"2022-09-07 20:00:00",LEMBAR,,8910990,Passenger,"2022-09-08 13:20:16",-8.146658,114.4023
Indonesia,"MERATUS GORONTALO",SHANTOU,-,CNSHA,,9202895,Cargo,"2022-09-08 13:52:16",-3.358333,117.1933
Indonesia,"NOLOWATI III",HALDIA,"2022-09-08 06:30:00",INHAL,HALDIA,9266229,Tanker,"2022-09-08 13:33:27",22.0415,88.09074
Indonesia,"LUMOSO KARUNIA VIII",AMAMAPARE,"2022-08-14 08:00:00",AMAMAPARE,"AMAMAPARE ANCH",9478925,Cargo,"2022-09-08 13:17:24",-4.948395,136.6587
Indonesia,UNIORDER,MUARA,"2022-09-08 07:00:00","MUARA BERAU","MUARA BERAU ANCH",9145970,Cargo,"2022-09-08 13:51:46",-0.2327317,117.574
Indonesia,"ERAWAN 12",SANDAKAN,"2022-09-07 08:00:00","MY SANDAKAN",,9301366,Tanker,"2022-09-07 18:53:23",5.649998,119.1167
Indonesia,"SINAR MASELA",CIWANDAN,"2022-09-07 15:00:00",ANYER,CIWANDAN,9279630,Tanker,"2022-09-08 13:52:30",-6.026983,105.9358
Indonesia,"TANJUNG BURANG",,"1900-01-01 00:00:00","PUNGGUR-UBAN P.P","TANJUNG UBAN",9027398,Passenger,"2022-09-08 12:54:05",1.060253,104.2189
Indonesia,"ARIN 8",BALIKPAPAN,-,"ID BPN",,9209001,Tanker,"2022-09-08 13:53:15",4.993333,119.6233
Indonesia,"PERTAMINA GAS 1",LONGKOU,-,CNLKU,,9643348,Tanker,"2022-09-08 13:53:47",8.453333,107.8867
Indonesia,"NAVIGATOR ARIES","SURALAYA ANCH","2022-09-08 22:54:00","TANJUNG JABUNG",,9403762,Tanker,"2022-09-08 13:14:45",-3.87895,109.4316
Indonesia,"ISA EXPRESS",BELAWAN,-,"ID BLW",,9082752,Cargo,"2022-09-08 13:28:02",-4.19227,115.9298
Indonesia,"ERICA 9",CIWANDAN,"2022-09-07 17:00:00",CIWANDAN/IDN,"CIWANDAN ANCH",9020845,Tanker,"2022-09-08 13:51:50",-6.01277,105.9382
Indonesia,"BARAKUDA NATUNA",,"1900-01-01 00:00:00",,,9138604,Tanker,"2022-09-08 13:27:21",4.131088,105.1283
Indonesia,"MERATUS MAKASSAR",JAKARTA,-,"ID JKT",,9106637,Cargo,"2022-09-08 13:50:57",-5.571667,116.9817
Indonesia,"AEROSEA CATALINA","TANJUNG UBAN",-,"ID TG UBAN",,9554913,Tanker,"2022-09-08 13:54:08",1.703835,101.7983
Indonesia,"ALIYAH PERMATA",BUNATI,"2022-09-06 06:09:00",BUNATI,BUNATI,9339789,Cargo,"2022-09-08 13:29:10",-3.8978,115.7092
Indonesia,"ORIENTAL RUBY",BELAWAN,-,"ID BLW",,8902125,Cargo,"2022-09-08 13:04:44",-0.9450316,105.0706
Indonesia,"PEONY LAUT",,"2022-09-09 07:00:00",SANGKULIRANG.ID,,9286853,Cargo,"2022-09-08 13:44:29",0.7986166,119.0257
Indonesia,"TANTO AMAN",BALIKPAPAN,-,BALIKPAPAN,,9085704,Cargo,"2022-09-08 13:52:46",-5.713333,108.07
Indonesia,"RED ROCK",,"2022-09-03 18:30:00","ID BINTUNI",TANGGUH,9197026,Cargo,"2022-09-08 13:52:54",-2.435,133.1133
Indonesia,"CORDELIA W",JAKARTA,"2022-07-19 16:00:00","IND JAKARTA",JAKARTA,9554901,Tanker,"2022-09-08 07:05:02",-6.103772,106.9077
Indonesia,"MP ENDURANCE","BATU AMPAR","2022-08-19 03:00:00",BATAM.ID,"BATU AMPAR",9394002,"Special Craft","2022-08-24 07:02:28",1.005612,103.9627
Indonesia,"GAS PATRICIA",PANJANG,"2022-09-07 19:30:00",PANJANG,,9202821,Tanker,"2022-09-08 13:47:59",-5.493923,105.3114
Indonesia,"LOGISTIK NUSANTARA 4",,"2022-09-08 17:00:00",PATIMBAN,,9474979,Cargo,"2022-09-08 13:09:21",-6.225966,107.9096
Indonesia,CHLOE,CHITTAGONG,-,"CHITTAGONG BGD",,9456173,Cargo,"2022-09-07 20:21:04",7.024048,98.15012
Indonesia,"JOHAN FORTUNE",JAKARTA,,"No data (CLASS B transponder)",JAKARTA,9285457,Cargo,"2022-07-27 08:00:21",-6.09508,106.8804
Indonesia,"TANTO TERANG",JAKARTA,"2022-09-04 09:00:00",JAKARTA,"JAKARTA ANCH",9169653,Cargo,"2022-09-08 13:54:19",-6.055316,106.8717
Indonesia,"HIJAU SEGAR",,"2022-08-28 02:00:00","DOCKYARD DPL",LAMONGAN,9190810,Cargo,"2022-09-08 06:56:59",-6.865948,112.4265
Indonesia,"LGH PROSPER",MORONI,"2022-09-06 08:00:00",MOROSI,KENDARI,9339478,Cargo,"2022-09-08 13:14:06",-3.84555,122.5261
Indonesia,"SINAR MATARAM",PANJANG,"2022-09-06 05:00:00",PANJANG,"PANJANG ANCH",9545390,Tanker,"2022-09-08 13:39:39",-5.513515,105.2988
Indonesia,"IDN WARSHIP 358",,"1900-01-01 00:00:00",ID,JAKARTA,0,"Special Craft","2022-09-08 06:39:03",-6.105772,106.8868
Indonesia,"ARMADA SEGARA","BATU AMPAR","2022-09-08 22:00:00",BATAM,,9000663,Cargo,"2022-09-08 13:53:21",1.210793,104.0357
Indonesia,"SUCCESS CHALLENGER XXXVII","BATU AMPAR","2022-05-25 17:30:00",BATAM,"BATU AMPAR",9147435,Tanker,"2022-09-08 13:49:32",1.099625,103.8886
Indonesia,"ANDHIKA NARESWARI","MUARA PANTAI",-,"MUARA PANTAI",,9123128,Cargo,"2022-09-08 13:53:33",-5.838335,106.3601
Indonesia,ALESSA,,"2022-09-02 20:00:00","MKS ID","MAKASSAR ANCH",9438262,Tanker,"2022-09-08 13:52:16",-5.136915,119.3779
Indonesia,CONCORD,"PASIR GUDANG","2022-09-04 14:00:00","MY PGU","PASIR GUDANG",9274006,Tanker,"2022-09-08 13:45:25",1.433677,103.9001
Indonesia,"GLOBAL TOP",DUMAI,"2022-09-06 10:00:00",DUMAI,"DUMAI ANCH",9112222,Tanker,"2022-09-08 13:52:20",1.713333,101.4433
