Flag,"Vessel Name","Destination Port","Reported Eta","Reported Destination","Calculated Eta","Current Port",Imo,"Vessel Type - Generic","Time Of Latest Position",Latitude,Longitude,"Current Port Unlocode"
Indonesia,KELUD,"BATU AMPAR","2022-10-27 05:00:00",BATAM,,JAKARTA,9139684,Passenger,"2022-11-25 12:52:02",-6.105015,106.8824,IDJKT
Indonesia,"EKAPUTRA 1",JAKARTA,"2022-11-23 23:00:00","ID JKT",,JAKARTA,8706155,Tanker,"2022-11-25 12:52:35",-5.975362,106.7988,IDJKT
Indonesia,"COMMODORE ONE",JAKARTA,"2022-11-23 02:36:00",TG.PRIOK,,JAKARTA,9260017,Tanker,"2022-11-25 12:43:56",-6.101518,106.9061,IDJKT
Indonesia,"SERASI III",JAKARTA,"2022-11-20 10:00:00","TG PRIOK JKT",,JAKARTA,8716162,Cargo,"2022-11-25 12:54:16",-6.098467,106.9135,IDJKT
Indonesia,"KALIMANTAN LEADER",JAKARTA,"2022-11-25 17:00:00","ID JKT","2022-11-25 12:30:00","JAKARTA ANCH",9078567,Cargo,"2022-11-25 12:51:27",-6.023925,106.9087,
Indonesia,"LNG AQUARIUS",JAKARTA,"2021-04-07 04:00:00","ID TPP",,"JAKARTA ANCH",7390181,Tanker,"2021-12-18 23:24:45",-5.948823,106.7709,
Indonesia,"KRI DEWARUCI",PALEMBANG,,"No data (CLASS B transponder)",,JAKARTA,0,"Sailing Vessel","2022-11-24 02:25:00",-6.097475,106.8911,IDJKT
Indonesia,"MERATUS AMPANA",JAKARTA,"2022-11-24 13:00:00",ID-JAKARTA,,JAKARTA,9262950,Cargo,"2022-11-25 12:54:00",-6.104856,106.888,IDJKT
Indonesia,"MERATUS AMURANG",JAKARTA,"2022-11-22 13:00:00","ID JKT",,"JAKARTA ANCH",9262962,Cargo,"2022-11-25 12:54:12",-6.02998,106.9063,
Indonesia,"CTP FORTUNE",JAKARTA,"2022-11-25 02:00:00","JAKARTA P/S",,JAKARTA,9181730,Cargo,"2022-11-25 00:06:49",-6.104033,106.8922,IDJKT
Indonesia,"JOHAN FORTUNE",JAKARTA,,"No data (CLASS B transponder)",,"JAKARTA ANCH",9285457,Cargo,"2022-11-25 09:14:40",-6.052865,106.8934,
Indonesia,"CC SEJATI",JAKARTA,"2022-11-23 14:00:00",TG.PRIOK,,JAKARTA,9170937,Cargo,"2022-11-25 12:52:30",-6.10231,106.8777,IDJKT
Indonesia,"ORIENTAL GALAXY",JAKARTA,"2022-11-25 01:00:00",IDJKT,,JAKARTA,9120920,Cargo,"2022-11-25 12:52:41",-6.101338,106.8827,IDJKT
Indonesia,"WEDA PIONEER",JAKARTA,"2022-11-25 01:00:00",TG.PRIOK,,"JAKARTA ANCH",9417476,Tanker,"2022-11-25 12:51:37",-6.043108,106.8965,
Indonesia,"NAVIGATOR GLOBAL",JAKARTA,"2022-11-21 14:00:00",ID-TGP,,JAKARTA,9536375,Tanker,"2022-11-25 12:54:04",-6.098935,106.9061,IDJKT
Indonesia,RANIA,,"2022-11-25 07:30:00","TG.P R I O K",,JAKARTA,8001490,Cargo,"2022-11-25 12:50:17",-6.098452,106.9119,IDJKT
Indonesia,CEPAT,JAKARTA,"2022-11-20 12:00:00","TG PRIOK",,"JAKARTA ANCH",9047207,Cargo,"2022-11-25 12:53:19",-6.034687,106.8914,
Indonesia,"GAS CAMELLIA",JAKARTA,"2022-10-10 15:00:00",TG.PRIOK,,"JAKARTA ANCH",9244403,Tanker,"2022-11-25 12:48:32",-6.049193,106.8967,
Indonesia,"KANAL MAS",JAKARTA,"2022-11-25 02:00:00",JAKARTA,,JAKARTA,9671890,Cargo,"2022-11-25 12:48:17",-6.097533,106.8882,IDJKT
Indonesia,"TANTO PRATAMA",JAKARTA,"2022-11-20 23:00:00",ID.JAKARTA,,JAKARTA,9118408,Cargo,"2022-11-25 12:52:09",-6.102598,106.8838,IDJKT
Indonesia,TANGKAS,"TANJUNG PELEPAS","2022-11-22 06:00:00",KHH-TPP,"2022-12-02 01:47:00","JAKARTA ANCH",9072252,Cargo,"2022-11-25 12:53:10",-6.033767,106.8983,
Indonesia,"KRI SPICA 934",SEMARANG,"2023-01-01 00:00:00",,,JAKARTA,0,"Special Craft","2022-11-25 12:53:33",-6.09302,106.8782,IDJKT
Indonesia,"TANTO TANGGUH",JAKARTA,"2022-11-19 01:00:00",ID.TPP,,"JAKARTA ANCH",9169665,Cargo,"2022-11-25 12:53:21",-6.044965,106.8714,
Indonesia,"BARUNA JAYA VIII",AMBON,"2022-08-15 14:30:00",,,JAKARTA,9155171,Fishing,"2022-11-25 12:52:24",-6.095802,106.8006,IDJKT
Indonesia,"ICON DANIEL",JAKARTA,"2022-11-25 12:00:00",JAKARTA,"2022-11-25 05:54:00","JAKARTA ANCH",9843194,Cargo,"2022-11-25 12:54:14",-6.037923,106.8686,
Indonesia,"MULYA SENTOSA II",JAKARTA,"2022-11-25 15:30:00","ID.TG PRIOK",,JAKARTA,9291054,Cargo,"2022-11-25 12:54:13",-6.100665,106.8774,IDJKT
Indonesia,"GAS WIDURI",JAKARTA,"2022-11-24 19:30:00",TG.PRIOK,"2022-11-24 12:51:00","JAKARTA ANCH",9590668,Tanker,"2022-11-25 12:52:56",-6.014455,106.8964,
Indonesia,"BARUNA JAYA 1",JAKARTA,"2022-05-14 23:00:00",JAKARTA,,JAKARTA,8420036,"Special Craft","2022-11-23 08:57:07",-6.095805,106.8005,IDJKT
Indonesia,"TELAGA MAS",JAKARTA,"2022-11-22 23:59:00",JAKARTA,,JAKARTA,9672375,Cargo,"2022-11-24 04:28:29",-6.0942,106.8805,IDJKT
Indonesia,SALVIA,JAKARTA,"2022-11-25 06:00:00","TANJUNG PANDAN",,JAKARTA,8614261,Passenger,"2022-11-25 12:51:26",-6.106278,106.8829,IDJKT
Indonesia,"WARIH MAS",JAKARTA,"2022-11-11 00:30:00","TG PRIOK",,JAKARTA,9672351,Cargo,"2022-11-18 05:34:01",-6.094208,106.8805,IDJKT
Indonesia,"NUSANTARA REGAS SATU",,"1900-01-01 00:00:00","FIXED NOORED",,JAKARTA,7382744,Tanker,"2022-11-25 12:51:35",-5.975192,106.7993,IDJKT
Indonesia,"MERATUS KAMPAR",JAKARTA,"2022-11-28 06:00:00",IDJKT,,JAKARTA,9741205,Cargo,"2022-11-25 12:53:48",-6.073508,106.8825,IDJKT
Indonesia,"PRATIWI SATU",JAKARTA,"2022-11-25 18:00:00","ID JAKARTA","2022-11-25 10:06:00","JAKARTA ANCH",9399650,Cargo,"2022-11-25 12:53:23",-6.047063,106.8992,
Indonesia,"TANTO MITRA",JAKARTA,"2022-11-25 04:00:00","TG PRIOK","2022-11-24 19:36:00","JAKARTA ANCH",9810094,Cargo,"2022-11-25 12:54:16",-6.049333,106.8739,
Indonesia,"ALEXINDO 1","BATU AMPAR","2022-11-10 20:00:00",BATAM,,JAKARTA,9193965,Cargo,"2022-11-25 12:53:17",-6.077715,106.807,IDJKT
Indonesia,"TANTO CAHAYA",JAKARTA,"2022-11-25 19:00:00","TG. PRIOK JAKARTA","2022-11-25 12:07:00","JAKARTA ANCH",8807569,Cargo,"2022-11-25 12:52:20",-6.025935,106.8953,
Indonesia,"PALUH TABUAN/PERTAMINA 1019",JAKARTA,"2022-12-08 06:00:00",TG.PRIOK-JKT,,"JAKARTA ANCH",7900168,Tanker,"2022-11-24 06:53:48",-6.00674,106.9296,
Indonesia,"BALI SANUR",JAKARTA,"2022-11-24 22:30:00","ID JKT",,JAKARTA,9465473,Cargo,"2022-11-25 12:52:10",-6.102705,106.8825,IDJKT
Indonesia,"HASIL LAUT XII",,,"No data (CLASS B transponder)",,JAKARTA,0,Fishing,"2022-11-25 12:53:59",-6.097507,106.8021,IDJKT
Indonesia,"TANTO KHARISMA",JAKARTA,"2022-11-23 10:00:00",JAKARTA,,JAKARTA,9915387,Cargo,"2022-11-25 12:54:03",-6.103768,106.8745,IDJKT
Indonesia,"LAYAR ARTHAWIBAWA",JAKARTA,"2022-09-22 22:00:00",JAKARTA,,"JAKARTA ANCH",9164885,Tanker,"2022-11-17 03:37:09",-6.037152,106.9006,
Indonesia,"KM SMR",,"2023-01-01 12:00:00",A,,"JAKARTA ANCH",4735598,Passenger,"2022-11-25 12:51:23",-5.954912,106.9185,
Indonesia,"TANTO KASIH",JAKARTA,"2022-11-24 13:30:00",JAKARTA,"2022-11-25 08:16:00","JAKARTA ANCH",9852391,Cargo,"2022-11-25 12:52:54",-6.06344,106.8748,
Indonesia,"JML ABADI",JAKARTA,"2022-11-24 06:00:00","TG.PRIOK JAKARTA",,"JAKARTA ANCH",9200196,Cargo,"2022-11-25 12:54:04",-6.064895,106.8946,
Indonesia,"SMS SAGITA",BAKAUHENI,"2022-11-14 01:00:00","MERAK-BAKAUHENI- PP",,JAKARTA,8705747,Passenger,"2022-11-19 05:17:40",-6.09429,106.8813,IDJKT
Indonesia,"PAN MARINE 8",JAKARTA,"2022-11-17 21:30:00","TG PRIUK",,JAKARTA,9483592,"Special Craft","2022-11-25 12:50:14",-6.112185,106.8672,IDJKT
Indonesia,"KALIMANTAN II",JAKARTA,"2022-11-12 06:48:00","TG PRIOK",,JAKARTA,8201789,"Special Craft","2022-11-12 03:00:13",-6.11492,106.8634,IDJKT
Indonesia,"TANTO MANDIRI",JAKARTA,"2022-11-24 20:00:00",TGPRIOK,"2022-11-25 13:21:00","JAKARTA ANCH",9810109,Cargo,"2022-11-25 12:54:10",-6.043388,106.8682,
Indonesia,"MERATUS WAINGAPU",JAKARTA,"2022-11-24 15:00:00","ID JKT",,JAKARTA,9838888,Cargo,"2022-11-25 12:54:02",-6.09864,106.8827,IDJKT
Indonesia,"SURYA SAMUDRA V",JAKARTA,"2022-11-02 10:00:00",JAKARTA,,JAKARTA,8107610,Cargo,"2022-11-15 07:59:40",-6.103543,106.9086,IDJKT
Indonesia,"LINTAS BRANTAS",JAKARTA,"2022-11-25 16:43:00",JAKARTA,"2022-11-24 23:00:00",JAKARTA,8657548,Cargo,"2022-11-25 12:51:38",-6.100955,106.8926,IDJKT
Indonesia,"IDN WARSHIP 907",,"1900-01-01 00:00:00",,,"JAKARTA ANCH",0,"Special Craft","2022-11-11 06:33:33",-6.05668,106.8934,
Indonesia,"PERMATA PIONEER",JAKARTA,"2022-11-18 10:00:00","ID JKT",,"JAKARTA ANCH",9246944,Tanker,"2022-11-25 12:53:23",-6.039433,106.8927,
Indonesia,"CB MAGELANG",,"2022-05-08 15:25:00","PHE OSES",,JAKARTA,9743784,"Special Craft","2022-11-25 12:51:08",-6.114375,106.8615,IDJKT
Indonesia,"ALKEN PRINCESS",JAKARTA,"2022-11-24 11:00:00",JAKARTA,,JAKARTA,9020613,Cargo,"2022-11-24 03:46:14",-6.120306,106.811,IDJKT
Indonesia,"DIVINE SUCCESS",BATEN,"2021-11-01 12:00:00","BOJONEGARA - BANTEN",,JAKARTA,7222607,Cargo,"2021-11-19 03:17:48",-6.107868,106.9622,IDJKT
Indonesia,"FORTUNE PACIFIC XLIX",JAKARTA,"2022-07-07 12:00:00",TG.PRIOK,,JAKARTA,9432086,Tanker,"2022-09-09 21:06:09",-6.095788,106.8802,IDJKT
Indonesia,"PAN MARINE 19",,"2022-11-25 18:30:00",KALIJAPAT000,,JAKARTA,9709582,"Special Craft","2022-11-25 12:50:44",-6.114326,106.8616,IDJKT
Indonesia,"SEKAR PERMATA",,"1900-01-01 00:00:00",,,JAKARTA,8627696,Cargo,"2022-11-13 00:39:28",-6.112613,106.8124,IDJKT
Indonesia,"KT.BATAVIA II 216","TELUK SEMANGKA",,"No data (CLASS B transponder)",,JAKARTA,9617870,Tug,"2022-11-21 10:05:37",-6.095489,106.9191,IDJKT
Indonesia,"INTAN DAYA 272",SURABAYA,,"No data (CLASS B transponder)",,JAKARTA,9861914,Cargo,"2022-11-25 09:10:23",-6.105048,106.8775,IDJKT
Indonesia,"TB TOL LANDAK VI",,,"No data (CLASS B transponder)",,"JAKARTA ANCH",0,Tug,"2022-11-25 12:54:13",-6.064273,106.8693,
Indonesia,"TB LL HELPRIT",,"2022-11-24 01:00:00",JKRT,,"JAKARTA ANCH",9954670,Tug,"2022-11-25 12:53:33",-6.077392,106.8792,
Indonesia,"JAYAKARTA 3",JAKARTA,"1900-01-01 00:00:00",,,JAKARTA,8993710,Tug,"2022-11-25 12:53:31",-6.09868,106.8917,IDJKT
Indonesia,"INTAN DAYA 15",JAKARTA,"2022-11-24 22:00:00","ID JKT",,JAKARTA,9787534,Cargo,"2022-11-25 12:51:51",-6.105397,106.8879,IDJKT
Indonesia,"TRANSKO CELEBES",JAKARTA,"2022-11-25 02:15:00",MARUNDA,,"JAKARTA ANCH",9644914,"Special Craft","2022-11-25 12:50:53",-6.072555,106.9517,
Indonesia,HOMANZAN,JAKARTA,"2022-11-24 17:30:00",MARUNDA,,JAKARTA,9020730,Cargo,"2022-11-25 12:54:16",-6.073133,106.9705,IDJKT
Indonesia,"TB.SDS 36",JAKARTA,"1900-01-01 00:00:00",,,JAKARTA,9342308,Tug,"2022-11-25 12:52:47",-6.102068,106.8828,IDJKT
Indonesia,"MEKAR SEJATI",JAKARTA,"2022-11-23 15:00:00","TG PRIUK",,"JAKARTA ANCH",8997857,"Special Craft","2022-11-25 12:42:09",-6.076002,106.89,
Indonesia,"SEACOVE PEARL",JAKARTA,"2022-11-10 00:00:00",JAKARTA,,JAKARTA,9723796,"Special Craft","2022-11-25 12:53:15",-6.105802,106.9586,IDJKT
Indonesia,"FERRINDO 5",JAKARTA,"2022-10-26 07:00:00",TG.PRIOK,,JAKARTA,8702501,Cargo,"2022-10-28 05:42:03",-6.103792,106.9096,IDJKT
Indonesia,"KAIROS II",SUND,"2022-11-24 04:00:00","SUNDA KELAPA",,JAKARTA,9297400,Cargo,"2022-11-25 12:52:25",-6.121797,106.8124,IDJKT
Indonesia,"LOGINDO PROGRESS",,"2022-11-09 23:50:00",TJ-PROK,,"JAKARTA ANCH",9398993,"Special Craft","2022-11-25 12:52:19",-6.078552,106.8737,
Indonesia,"DELTA VICTORY 08",JAKARTA,"2022-11-18 20:15:00",MARUNDA,,JAKARTA,9802918,Tanker,"2022-11-19 23:06:36",-6.07177,106.9695,IDJKT
Indonesia,"NMS BRILLIANCE",JAKARTA,"2022-11-13 20:00:00","JAKARTA TG.PRIOK",,JAKARTA,9739422,"Special Craft","2022-11-25 12:52:19",-6.1034,106.9101,IDJKT
Indonesia,"TRANSINDO III",JAKARTA,"2022-11-17 23:00:00",TG.PRIOK,,"JAKARTA ANCH",9027611,"Special Craft","2022-11-25 12:52:31",-6.073125,106.889,
Indonesia,SIGAP,BANJARMASIN,"2021-11-16 11:00:00",BANJARMASIN,,JAKARTA,9149196,Cargo,"2022-01-30 00:33:52",-6.107841,106.9622,IDJKT
Indonesia,"NUSA DHARMA",MERAK,"2022-12-12 00:00:00","MERAK - BAKAUHENI PP",,JAKARTA,7303308,Cargo,"2022-10-30 23:34:47",-6.096445,106.8804,IDJKT
Indonesia,"CIPTA JAYA HARAPAN 9",JAKARTA,"2022-11-25 07:00:00",JAKARTA,"2022-11-25 00:03:00","JAKARTA ANCH",9599030,"Special Craft","2022-11-25 12:53:11",-6.065688,106.8893,
Indonesia,"GARUDA OFFSHORE",JAKARTA,"2022-10-18 05:00:00",MARUNDA,,JAKARTA,9640695,"Special Craft","2022-11-25 12:51:10",-6.08074,106.9628,IDJKT
Indonesia,"BUANA MAS PERMAI",JAKARTA,"2022-11-17 17:50:00",MARUNDA,,JAKARTA,8810827,Tanker,"2022-11-25 08:47:42",-6.076452,106.971,IDJKT
Indonesia,MUSI,JAKARTA,"2022-11-20 18:00:00",JAKARTA/PRIOK,,JAKARTA,9601699,Tanker,"2022-11-25 12:51:59",-6.103945,106.9059,IDJKT
Indonesia,"KT BIMA 035",JAKARTA,"1900-01-01 00:00:00",,,JAKARTA,9302384,Tug,"2022-11-25 12:53:19",-6.106411,106.8832,IDJKT
Indonesia,"JUNEYAO MARU II",MALOY,"2022-08-11 09:00:00",MALOY-MARUNDA,,"JAKARTA ANCH",9673721,Tanker,"2022-11-25 12:54:02",-6.066943,106.9519,
Indonesia,"BAHARI 28",JAKARTA,"2022-11-19 03:00:00",JAKARTA,"2022-11-18 19:23:00",JAKARTA,8810396,Cargo,"2022-11-18 23:47:03",-6.122376,106.8124,IDJKT
Indonesia,LAPETTA,JAKARTA,,"No data (CLASS B transponder)",,JAKARTA,9004645,Tanker,"2022-11-24 15:25:53",-6.089743,106.9382,IDJKT
Indonesia,"TEKUN JAYA",ANCHORAGE,"2022-04-08 07:30:00",ANCHORAGE,,"JAKARTA ANCH",9535319,"Special Craft","2022-11-25 12:51:53",-6.079155,106.8759,
Indonesia,"AGUNG SEJATI",,"2022-12-01 20:22:00",TJ.REDEP,,"JAKARTA ANCH",9089918,"Special Craft","2022-11-25 12:53:57",-6.065825,106.8653,
Indonesia,"SENTOSA 11","PANGKAL BALAM",,"No data (CLASS B transponder)",,JAKARTA,8533417,Cargo,"2022-11-24 11:57:37",-6.120268,106.8111,IDJKT
Indonesia,"FIGAR JAYA II",MERAK,,"No data (CLASS B transponder)",,"JAKARTA ANCH",9058543,Tanker,"2022-11-25 09:15:29",-6.074528,106.8871,
Indonesia,"CB SALATIGA",JAKARTA,"2022-11-30 04:01:00",,"2022-11-25 01:15:00",JAKARTA,9743772,"Special Craft","2022-11-25 12:53:46",-6.114382,106.8615,IDJKT
Indonesia,"BINTANG SAMUDRA 8",,,"No data (CLASS B transponder)",,"JAKARTA ANCH",0,Other,"2022-11-25 12:51:31",-6.072295,106.8884,
Indonesia,"STB 36",JAKARTA,"2022-11-20 19:00:00",JAKARTA,,JAKARTA,8631001,Cargo,"2022-11-21 03:28:25",-6.121449,106.8122,IDJKT
Indonesia,"PESUT III",JAKARTA,"2022-10-18 12:00:00","TG PRIOK",,"JAKARTA ANCH",8519629,"Special Craft","2022-11-25 12:52:59",-6.080932,106.8725,
Indonesia,"SAMUDRA PRATAMA",JAKARTA,"2022-11-18 12:00:00",JAKARTA,,"JAKARTA ANCH",7209899,Cargo,"2022-11-18 05:40:57",-6.07143,106.8958,
Indonesia,"PAN MARINE 9",,"2022-11-25 10:35:00",HLNG6,,JAKARTA,9362592,"Special Craft","2022-11-25 12:51:09",-6.096879,106.9569,IDJKT
Indonesia,"KARSA JAYA",JAKARTA,,"No data (CLASS B transponder)",,JAKARTA,8879172,Cargo,"2022-11-23 15:02:15",-6.108008,106.8128,IDJKT
Indonesia,"BAHTERA CEMERLANG",JAKARTA,"2022-06-07 16:00:00",JAKARTA,,JAKARTA,9136618,Cargo,"2022-11-25 10:11:15",-6.101158,106.8097,IDJKT
Indonesia,"AHTS PETEKA 5401",,"2022-11-25 22:55:00","PHE ONWJ",,"JAKARTA ANCH",9398034,"Special Craft","2022-11-25 12:52:52",-6.068459,106.9553,
Indonesia,"TRIJAYA XXI",,,"No data (CLASS B transponder)",,JAKARTA,0,Fishing,"2022-11-05 01:27:41",-6.095173,106.8025,IDJKT
Indonesia,"RAWABI TOPAZ",JAKARTA,"2022-11-21 19:30:00",JAKARTA,,"JAKARTA ANCH",9720615,"Special Craft","2022-11-25 12:48:25",-6.071047,106.8709,
Indonesia,"MEKAR UTAMA",JAKARTA,"2022-08-21 16:00:00","TG PRIOK",,JAKARTA,8742123,"Special Craft","2022-11-25 12:52:37",-6.117095,106.8655,IDJKT
Indonesia,"JAYAKARTA I",JAKARTA,,"No data (CLASS B transponder)",,JAKARTA,8993693,Tug,"2022-11-25 12:47:10",-6.097168,106.8891,IDJKT
Indonesia,"BATANG HARI 30",JAKARTA,"2022-11-12 12:00:00","TG PRIOK <JAKARTA",,JAKARTA,9061485,"Special Craft","2022-11-02 06:34:43",-6.112322,106.8622,IDJKT
Indonesia,"ABIMANYU III",JAKARTA,"2022-11-04 17:45:00",TG.PRIOK,,JAKARTA,9872664,Tug,"2022-11-25 12:53:29",-6.10635,106.8835,IDJKT
Indonesia,"AHTS.PETEKA 5402",JAKARTA,"2022-11-11 19:30:00",MARUNDA,,"JAKARTA ANCH",9407641,"Special Craft","2022-11-25 12:51:55",-6.080592,106.934,
Indonesia,"PAN MARINE 12",,"2022-11-25 10:15:00",BRAVO0,,JAKARTA,9656113,"Special Craft","2022-11-25 12:50:24",-6.09715,106.9568,IDJKT
Indonesia,"KASPADU I",JAKARTA,"2022-11-13 20:00:00",JAKARTA,,"JAKARTA ANCH",8771590,Cargo,"2022-11-25 11:56:01",-6.05255,106.8594,
Indonesia,"HI 01",,"2022-12-12 12:12:00","TEST HARBOR",,JAKARTA,9003184,Cargo,"2022-09-19 02:29:31",-6.10784,106.9622,IDJKT
Indonesia,KOYO,PALEMBANG,"2022-11-24 13:00:00",PALEMBANG>>JAKARTA,"2022-11-25 05:44:00",JAKARTA,8922204,Cargo,"2022-11-25 12:49:40",-6.110082,106.8128,IDJKT
Indonesia,"DJO NO.2",,,"No data (CLASS B transponder)",,"JAKARTA ANCH",8704391,Cargo,"2022-11-21 05:30:23",-6.084623,106.8759,
Indonesia,"HARMONI MAS",,,"No data (CLASS B transponder)",,"JAKARTA ANCH",0,Other,"2022-11-25 04:22:06",-6.068018,106.8941,
Indonesia,"INDAHJAYA MAKMUR VII",,,"No data (CLASS B transponder)",,JAKARTA,0,Fishing,"2022-11-08 07:08:14",-6.099297,106.8039,IDJKT
Indonesia,"BAHARI KUSUMA JAYA",JAKARTA,"2022-11-23 23:00:00",JAKARTA,,JAKARTA,9937919,"Special Craft","2022-11-25 12:53:08",-6.111528,106.868,IDJKT
Indonesia,"KANAYA PRIMA 99","JAKARTA ANCH","1900-01-01 00:00:00",,,"JAKARTA ANCH",8749418,Tanker,"2022-11-15 10:06:57",-6.074752,106.896,
Indonesia,"KN DAMARU","MUARA SABAK","2022-05-26 12:00:00","MUARA SABAK",,JAKARTA,0,Other,"2022-11-25 12:53:07",-6.117135,106.8651,IDJKT
Indonesia,"BAHARI 11",JAKARTA,"2022-11-20 21:00:00","ID TG PRIOK",,JAKARTA,8870621,Cargo,"2022-11-25 12:53:33",-6.113433,106.8655,IDJKT
Indonesia,"ARMADA CONTENER 8",,,"No data (CLASS B transponder)",,JAKARTA,9511753,Cargo,"2022-11-25 12:46:09",-6.120353,106.8111,IDJKT
Indonesia,"BESTLINK 88",,,"No data (CLASS B transponder)",,JAKARTA,8917625,"Special Craft","2022-11-20 20:43:18",-6.109058,106.8766,IDJKT
Indonesia,"BARUNA JAYA IV",PULA,"1900-01-01 00:00:00",,,JAKARTA,9065998,Fishing,"2022-06-02 02:58:18",-6.095861,106.8004,IDJKT
Indonesia,OZU,MERAK,,"No data (CLASS B transponder)",,JAKARTA,9036686,Tanker,"2022-08-11 21:38:10",-5.937417,106.9214,IDJKT
Indonesia,"INTAN DAYA",JAKARTA,"2022-11-24 07:00:00","ID MARUNDA",,"JAKARTA ANCH",9595668,Cargo,"2022-11-25 12:53:11",-6.046021,106.9411,
Indonesia,"TELUK BAJAU GLORY",JAKARTA,"2022-11-19 01:36:00","MARUNDA JAKARTA",,JAKARTA,9772670,"Special Craft","2022-11-25 12:52:51",-6.096358,106.9582,IDJKT
Indonesia,"MARTHA FORTUNE",,"2022-07-01 22:00:00",PRIUK,,JAKARTA,7434303,Tug,"2022-11-25 12:53:19",-6.097348,106.9056,IDJKT
Indonesia,"KUSUMA 2",JAKARTA,"1900-01-01 00:00:00","TJ PRIOK",,JAKARTA,8510374,Tanker,"2022-11-25 12:51:41",-6.08528,106.9335,IDJKT
Indonesia,FLAMINGO,,"1900-01-01 00:00:00",,,"JAKARTA ANCH",8665399,Passenger,"2022-11-25 12:52:52",-6.078553,106.8687,
Indonesia,"KENCANA 89",JAKARTA,"2022-11-24 06:00:00",TGPRIOK,,JAKARTA,8916762,Tanker,"2022-11-25 12:52:53",-6.084045,106.9313,IDJKT
Indonesia,"GRAHA ANGKASA II",,,"No data (CLASS B transponder)",,JAKARTA,8922917,Cargo,"2022-11-25 00:57:35",-6.122075,106.8118,IDJKT
Indonesia,"SEJAHTERA 20",,,"No data (CLASS B transponder)",,JAKARTA,8746571,Cargo,"2022-11-22 05:54:29",-6.118873,106.8099,IDJKT
Indonesia,"SEMAR 81","JAKARTA ANCH","2022-09-03 04:00:00",,,"JAKARTA ANCH",9563653,Tug,"2022-11-25 12:52:11",-6.007253,106.7886,
Indonesia,"LCT SUPER 99",JAKARTA,"2022-11-16 14:00:00",TANJUNGPRIOK,,"JAKARTA ANCH",9547738,"Special Craft","2022-11-23 23:43:30",-6.076707,106.8734,
Indonesia,"MADIDIHANG 03",JAKARTA,"2022-06-29 10:00:00",TJ.PRIOK-JAKARTA,,JAKARTA,9550967,Fishing,"2022-11-16 06:23:25",-6.095268,106.8002,IDJKT
Indonesia,"LCT.SINAR DEWA","JAKARTA ANCH","2022-05-07 16:00:00",TG:PRIOK,"2022-11-25 12:24:00",JAKARTA,8562004,Other,"2022-11-25 11:43:19",-6.106562,106.8785,IDJKT
Indonesia,LCT.PERKASA.PRIMA.7,JAKARTA,"2022-11-24 18:00:00","TG PRIOK",,JAKARTA,9417921,"Special Craft","2022-11-25 12:52:53",-6.11086,106.8704,IDJKT
Indonesia,"SILKROAD 06",JAKARTA,"2022-11-23 05:00:00","ID MARUNDA",,JAKARTA,9723772,Tanker,"2022-11-25 12:52:13",-6.07259,106.9698,IDJKT
Indonesia,"BUANA MAS PERSADA",JAKARTA,"2022-11-15 06:00:00",MARUNDA,,"JAKARTA ANCH",3558412,Tanker,"2022-11-24 02:25:53",-6.058543,106.9417,
Indonesia,"PERKASA PRIMA 18",SAMARINDA,"2022-06-20 12:00:00",SAMARINDA,,"JAKARTA ANCH",9612686,"Special Craft","2022-11-25 10:07:13",-6.066695,106.8915,
Indonesia,"LL BARLIAN",JAKARTA,"2022-11-21 16:49:00",MARUNDA,,JAKARTA,9910064,Tug,"2022-11-25 12:51:49",-6.074447,106.971,IDJKT
Indonesia,"GLOBAL ONE",JAKARTA,"2022-11-09 21:30:00","ID JAKARTA",,"JAKARTA ANCH",0,Cargo,"2022-11-25 12:53:15",-6.073205,106.8947,
Indonesia,"BIMA 034",JAKARTA,"1900-01-01 00:00:00",PRIOK,,JAKARTA,9296042,Tug,"2022-11-25 09:12:25",-6.114053,106.863,IDJKT
Indonesia,"KENCANA 6",,,"No data (CLASS B transponder)",,JAKARTA,8839706,Tanker,"2022-11-25 12:53:58",-6.088363,106.9361,IDJKT
Indonesia,"MI NO.1",JAKARTA,"1900-01-01 00:00:00",JAKARTA,,JAKARTA,8608664,Cargo,"2022-11-25 12:54:03",-6.116183,106.8084,IDJKT
Indonesia,"INDAH COSTA",JAKARTA,,"No data (CLASS B transponder)",,JAKARTA,9062611,Cargo,"2022-11-20 22:26:38",-6.096808,106.8125,IDJKT
Indonesia,"QUICKSILVER IX",,"2022-02-07 10:00:00",SUNDAKLP,,JAKARTA,9640190,Passenger,"2022-09-21 08:13:12",-6.119655,106.8128,IDJKT
Indonesia,"TB BATAVIA III",JAKARTA,"1900-01-01 00:00:00",,,JAKARTA,0,Other,"2022-11-25 12:50:39",-6.099135,106.891,IDJKT
Indonesia,"SRIWIJAYA RAYA","BATU AMPAR","2021-03-16 20:00:00",BATAM,,JAKARTA,8630978,Cargo,"2022-11-16 04:34:30",-6.118427,106.8099,IDJKT
Indonesia,"JAYAKARTA 4",PANJANG,,"No data (CLASS B transponder)",,JAKARTA,8993722,Tug,"2022-11-25 12:52:25",-6.097077,106.8886,IDJKT
Indonesia,"KOTA NABIRE",,,"No data (CLASS B transponder)",,JAKARTA,8032750,Cargo,"2022-11-22 02:55:05",-6.12242,106.8124,IDJKT
Indonesia,"ARTA MULIA",JAKARTA,,"No data (CLASS B transponder)",,JAKARTA,8821137,Cargo,"2022-11-12 15:43:13",-6.120358,106.812,IDJKT
Indonesia,"PUL MANDIRI",JAKARTA,"2022-11-23 14:00:00",JAKARTA,,JAKARTA,8114261,Cargo,"2022-11-23 16:12:42",-6.103673,106.9086,IDJKT
Indonesia,"KUJANG JAYA 1",JAKARTA,"1900-01-01 00:00:00",,,JAKARTA,9894179,Tanker,"2022-11-25 12:50:11",-6.098351,106.8828,IDJKT
Indonesia,"S FAITH",JAKARTA,"2022-11-24 16:00:00",JAKARTA,,JAKARTA,9913341,Cargo,"2022-11-25 12:51:58",-6.113972,106.8653,IDJKT
Indonesia,"DIMAS PUTRA 5",JAKARTA,"2022-11-25 09:00:00",TG.PRIOK,,JAKARTA,8865535,Tanker,"2022-11-25 12:53:49",-6.085488,106.9296,IDJKT
Indonesia,"SULTAN SULAIMAN",JAKARTA,"2023-01-06 17:00:00",TANJUNGPRIOK,,"JAKARTA ANCH",9923152,Tanker,"2022-11-25 12:50:17",-6.072458,106.8925,
Indonesia,"KARINA 68",,"2022-04-09 00:00:00","PHE FIEL",,JAKARTA,9916496,"Special Craft","2022-11-25 12:50:41",-6.084788,106.9608,IDJKT
Indonesia,"PRIMA SAKTI VIII",JAKARTA,"2023-03-01 10:00:00",,,JAKARTA,9904936,Tug,"2022-11-25 12:41:43",-6.101695,106.8774,IDJKT
Indonesia,"KL. M.H. THAMRIN",JAKARTA,,"No data (CLASS B transponder)",,"JAKARTA ANCH",9845594,Other,"2022-11-25 12:51:54",-6.076263,106.8871,
Indonesia,KEISHIN,SUND,"2022-11-16 17:00:00","SUNDA KELAPA",,JAKARTA,9062647,Cargo,"2022-11-19 00:34:11",-6.122513,106.8119,IDJKT
Indonesia,"TB SEMAR 82",JAKARTA,"1900-01-01 00:00:00",,,JAKARTA,9644287,Tug,"2022-11-25 12:52:03",-5.971493,106.79,IDJKT
Indonesia,"KANAYA INDAH 99",JAKARTA,"1900-01-01 00:00:00",,,JAKARTA,9681625,Tanker,"2022-11-08 05:20:08",-6.096525,106.8758,IDJKT
Indonesia,"TB FPS 19",JAKARTA,"2022-11-22 20:00:00",JAKARTA,,"JAKARTA ANCH",9879404,Tug,"2022-11-25 12:52:38",-6.075378,106.8771,
Indonesia,"INTAN 71",,,"No data (CLASS B transponder)",,JAKARTA,8631506,Cargo,"2022-11-23 09:40:41",-6.118523,106.8095,IDJKT
Indonesia,ARWANA,JAKARTA,"1900-01-01 00:00:00",JAKARTA-KEP.SERIBU,,JAKARTA,9068330,Passenger,"2022-11-11 11:30:22",-6.101682,106.7725,IDJKT
Indonesia,"TBI JAYA",,"2022-11-23 21:00:00",SD.KELAPA,,JAKARTA,9084358,Cargo,"2022-11-25 12:52:11",-6.109024,106.8116,IDJKT
Indonesia,"TB SEMAR 83","JAKARTA ANCH","1900-01-01 00:00:00",,,JAKARTA,9644299,Tug,"2022-11-25 12:54:00",-5.975167,106.7916,IDJKT
Indonesia,"SEAPUP 3",SHENZHEN,"2022-02-08 12:00:00","SHEN ZHEN",,JAKARTA,9808584,"Special Craft","2022-08-29 06:52:25",-6.093657,106.9568,IDJKT
Indonesia,"DERMAGA MAWAR KENCANA",JAKARTA,"1900-01-01 00:00:00",,,JAKARTA,7432707,Tug,"2022-11-24 22:45:53",-6.097245,106.9058,IDJKT
Indonesia,"TB SAKURA HARBOUR",JAKARTA,"2022-09-01 09:02:00",,,JAKARTA,8341371,Other,"2022-11-25 12:51:33",-6.097136,106.9055,IDJKT
Indonesia,"BTG SAMPURNA JAYA A",,,"No data (CLASS B transponder)",,JAKARTA,0,Fishing,"2022-08-21 15:35:34",-6.101217,106.8028,IDJKT
Indonesia,"TB BILITON 178",,,"No data (CLASS B transponder)",,JAKARTA,9580900,Tug,"2022-11-25 06:00:17",-6.10095,106.9547,IDJKT
Indonesia,"TSHD TIMOR",CIREBON,"1900-01-01 00:00:00",,,JAKARTA,8009404,"Special Craft","2022-08-20 03:55:43",-6.112822,106.8624,IDJKT
Indonesia,"ANUGRAH BUC0V",JAKARTA,"2022-11-07 21:00:00",JAKARTA,,JAKARTA,8712685,Cargo,"2022-11-11 07:33:42",-6.108012,106.8768,IDJKT
Indonesia,ZEVRA,"JAKARTA ANCH","1900-01-01 00:00:00",,,JAKARTA,9049372,Tanker,"2022-11-17 11:32:10",-6.078428,106.89,IDJKT
Indonesia,"PERMATA HATI",,,"No data (CLASS B transponder)",,JAKARTA,8915366,Cargo,"2022-11-22 01:59:25",-6.122509,106.8123,IDJKT
Indonesia,MALOEKOE,,"2022-11-24 12:00:00","PANTAI MUTIARA",,JAKARTA,0,Other,"2022-11-25 12:51:29",-6.102958,106.781,IDJKT
Indonesia,"DIMAS PUTRA VII",JAKARTA,"2022-10-21 13:00:00",,,JAKARTA,9961415,Tanker,"2022-11-25 12:51:33",-6.08418,106.9313,IDJKT
Indonesia,"KARSA SETIA",,,"No data (CLASS B transponder)",,JAKARTA,8720424,Cargo,"2022-11-13 10:56:31",-6.120105,106.812,IDJKT
Indonesia,"PERMATA NUSANTARA I",,,"No data (CLASS B transponder)",,JAKARTA,9103192,Cargo,"2022-10-18 02:06:34",-6.106699,106.8123,IDJKT
Indonesia,IVANI,DALARO,,"No data (CLASS B transponder)",,"JAKARTA ANCH",0,Tanker,"2022-11-25 12:51:51",-6.076493,106.8965,
Indonesia,"KN EDAM",,"2022-08-25 13:00:00",KLJPT,,JAKARTA,9842621,"Special Craft","2022-08-25 05:42:06",-6.117775,106.865,IDJKT
Indonesia,TEZT,KALI,"2022-10-13 20:00:00",TJG-KALIAN-TJG-API,,JAKARTA,0,Passenger,"2022-11-01 14:39:13",-6.109598,106.8935,IDJKT
Indonesia,"KP PELATUK","JAKARTA ANCH","1900-01-01 00:00:00",,,JAKARTA,9620229,"Special Craft","2022-11-25 04:00:01",-6.101748,106.9096,IDJKT
Indonesia,"TB BUANA SUPREME",KUANTAN,,"No data (CLASS B transponder)",,"JAKARTA ANCH",9802736,Tug,"2022-11-25 12:52:21",-6.056792,106.8654,
Indonesia,"TIRTA PUTRA KENCANA1",,,"No data (CLASS B transponder)",,JAKARTA,0,Fishing,"2022-07-06 14:43:35",-6.102012,106.7766,IDJKT
Indonesia,PUNAI,,"2022-09-02 10:00:00",TGL,,JAKARTA,7125574,"Special Craft","2022-09-20 07:20:55",-6.111815,106.868,IDJKT
Indonesia,"BUANA EMAS",SUND,"2022-09-01 07:30:00","SUNDA KELAPA",,JAKARTA,8608808,Cargo,"2022-10-20 01:32:21",-6.11739,106.8092,IDJKT
Indonesia,"KM. JAYA UTAMA 18",,,"No data (CLASS B transponder)",,JAKARTA,0,Fishing,"2022-11-19 02:43:16",-6.101692,106.8031,IDJKT
Indonesia,"KP PERISAI 5",,"1900-01-01 00:00:00",,,JAKARTA,0,Unspecified,"2022-11-25 09:43:49",-6.109573,106.9603,IDJKT
Indonesia,"KM.BHAITA JAYA PRIMA",,,"No data (CLASS B transponder)",,JAKARTA,0,Cargo,"2022-11-23 00:24:17",-6.092455,106.9389,IDJKT
Indonesia,"ORCA 02",JAKARTA,"1900-01-01 00:00:00",,,JAKARTA,0,"Special Craft","2022-10-17 01:41:44",-6.095132,106.7997,IDJKT
Indonesia,"KM CROWN MARITIM II",,,"No data (CLASS B transponder)",,JAKARTA,0,Fishing,"2022-11-21 04:17:02",-6.093278,106.7999,IDJKT
Indonesia,"SPOB PROSPER THREE",,,"No data (CLASS B transponder)",,"JAKARTA ANCH",0,Tanker,"2022-11-25 07:06:00",-6.060843,106.9392,
Indonesia,"SPOB JUNA 4",,,"No data (CLASS B transponder)",,JAKARTA,0,Tanker,"2022-11-01 05:09:51",-6.090893,106.9326,IDJKT
Indonesia,"BAHARI 22",,,"No data (CLASS B transponder)",,JAKARTA,0,Cargo,"2022-11-17 21:12:40",-6.098691,106.8107,IDJKT
Indonesia,"MARVELA 18",,,"No data (CLASS B transponder)",,JAKARTA,0,Other,"2022-10-16 10:04:06",-6.085717,106.9611,IDJKT
Indonesia,"ELENA 99",,"2023-02-28 23:00:00","SUPPORT VESSEL",,JAKARTA,0,Tug,"2022-11-25 12:51:34",-6.095205,106.9571,IDJKT
Indonesia,"ALKEN PESAT",CILEGON,,"No data (CLASS B transponder)",,JAKARTA,0,Other,"2022-11-24 11:59:14",-6.10721,106.8108,IDJKT
Indonesia,CEMPAKA,JAKARTA,"2022-12-07 16:15:00",JAKARTA,,JAKARTA,8737386,"Special Craft","2022-08-24 09:03:11",-6.11391,106.8623,IDJKT
Indonesia,"LINTAS BAHARI 18",,,"No data (CLASS B transponder)",,JAKARTA,0,Cargo,"2022-11-23 11:31:21",-6.106897,106.8101,IDJKT
Indonesia,"LCT RAYMOND 3",,,"No data (CLASS B transponder)",,"JAKARTA ANCH",0,"Pleasure Craft","2022-11-25 12:53:21",-6.068232,106.8897,
Indonesia,"MUARA 99",,,"No data (CLASS B transponder)",,"JAKARTA ANCH",0,Tug,"2022-03-26 16:15:24",-5.880103,106.2957,
Indonesia,"PUTRA BUNGSU",,,"No data (CLASS B transponder)",,JAKARTA,0,Fishing,"2022-10-26 10:15:24",-6.104082,106.7766,IDJKT
Indonesia,"COSTA FORTUNA 3",,,"No data (CLASS B transponder)",,JAKARTA,0,"Special Craft","2022-11-25 12:49:23",-6.092008,106.9038,IDJKT
Indonesia,"TEK GLORY 1",JAKARTA,"2021-01-23 20:00:00",JAKARTA,,JAKARTA,8917120,Cargo,"2022-06-14 09:39:32",-6.12958,106.8053,IDJKT
Indonesia,"PERMATA NUSANTARA V","JAKARTA ANCH","1900-01-01 00:00:00",,,"JAKARTA ANCH",0,Tanker,"2022-11-25 12:50:31",-6.076058,106.8913,
Indonesia,"SPOB.D D",,,"No data (CLASS B transponder)",,JAKARTA,0,Other,"2022-11-24 05:03:56",-6.086332,106.9361,IDJKT
Indonesia,"ADRI LI","BENOA ANCH","1900-01-01 00:00:00",,,JAKARTA,0,"Special Craft","2022-11-22 01:34:45",-6.109578,106.8781,IDJKT
Indonesia,"SP0B .PULOMAS JAYA",MERAK,"2022-12-12 12:12:00",MERAK,,"JAKARTA ANCH",0,Cargo,"2022-11-25 12:49:42",-6.070555,106.8911,
Indonesia,KRIRIGEL,,"2022-09-06 00:00:00",NONE,,JAKARTA,0,"Special Craft","2022-11-25 12:52:34",-6.09301,106.8783,IDJKT
Indonesia,"FIGAR JAYA 1",JAKARTA,,"No data (CLASS B transponder)",,JAKARTA,0,Tanker,"2022-11-25 12:51:20",-6.106,106.9057,IDJKT
Indonesia,"TB.LINTAS PAWAN",,,"No data (CLASS B transponder)",,"JAKARTA ANCH",0,Other,"2022-11-23 17:10:33",-6.076118,106.8762,
Indonesia,"KM SUKSES ABADI 88",,,"No data (CLASS B transponder)",,JAKARTA,0,Cargo,"2022-11-15 18:19:53",-6.120877,106.812,IDJKT
Indonesia,"AYU 28",,,"No data (CLASS B transponder)",,"JAKARTA ANCH",0,Other,"2022-11-25 06:41:34",-6.075015,106.8917,
Indonesia,"ALEXINDO 8",,,"No data (CLASS B transponder)",,JAKARTA,0,Cargo,"2022-11-21 11:30:21",-6.117298,106.8097,IDJKT
Indonesia,"TB FPS 23",,,"No data (CLASS B transponder)",,"JAKARTA ANCH",0,Tug,"2022-11-25 12:51:27",-6.066712,106.8747,
Indonesia,"TB.JOHAN JAYA 106",,,"No data (CLASS B transponder)",,JAKARTA,0,Tug,"2022-11-24 09:05:30",-6.077307,106.971,IDJKT
Indonesia,"PURBA JAYA I",JAKARTA,,"No data (CLASS B transponder)",,JAKARTA,0,Tanker,"2022-11-25 12:53:55",-6.095908,106.9061,IDJKT
Indonesia,"KT ARJUNA 2",JAKARTA,"1900-01-01 00:00:00","PORT OF TANJUNGPRIUK",,JAKARTA,0,Tug,"2022-11-25 12:53:33",-6.083231,106.8806,IDJKT
Indonesia,"SPOB BOJONEGORO VIII",,,"No data (CLASS B transponder)",,"JAKARTA ANCH",0,Tanker,"2022-11-24 22:54:27",-6.073699,106.8985,
Indonesia,"KILAT MAJU JAYA 8",,,"No data (CLASS B transponder)",,JAKARTA,0,Fishing,"2022-11-17 20:22:30",-6.100204,106.8037,IDJKT
Indonesia,"MICHAEL 7","JAKARTA ANCH",,"No data (CLASS B transponder)",,"JAKARTA ANCH",0,Other,"2022-11-25 11:29:27",-6.052838,106.8936,
Indonesia,"TB SEWALI",,,"No data (CLASS B transponder)",,JAKARTA,0,Tug,"2022-11-25 12:49:39",-6.110796,106.8705,IDJKT
Indonesia,"KT ARJUNA1",JAKARTA,"1900-01-01 00:00:00",,,JAKARTA,0,Tug,"2022-11-25 12:53:46",-6.101232,106.8771,IDJKT
Indonesia,"TANJUNG BAHARI 19",,,"No data (CLASS B transponder)",,JAKARTA,0,Tug,"2022-11-25 12:52:42",-6.116271,106.8089,IDJKT
Indonesia,IRVINA.808,,,"No data (CLASS B transponder)",,JAKARTA,0,Other,"2022-11-25 12:52:08",-6.097613,106.9565,IDJKT
Indonesia,"LCT PUTRA JAYA",,,"No data (CLASS B transponder)",,"JAKARTA ANCH",0,Cargo,"2022-11-25 12:30:47",-6.078485,106.887,
Indonesia,"STI 3","JAKARTA ANCH",,"No data (CLASS B transponder)",,JAKARTA,7804651,Cargo,"2022-07-31 17:21:18",-6.078758,106.9041,IDJKT
Indonesia,"KRI TBN 520",JAKARTA,"1900-01-01 00:00:00",JAKARTA,,JAKARTA,0,Fishing,"2022-11-25 02:24:14",-6.10615,106.892,IDJKT
Indonesia,"TANJUNG BAHARI 35",,,"No data (CLASS B transponder)",,JAKARTA,0,Tug,"2022-11-25 12:54:00",-6.098533,106.956,IDJKT
Indonesia,"SPOB CUPUNAGARA",JAKARTA,,"No data (CLASS B transponder)",,"JAKARTA ANCH",0,Tanker,"2022-11-24 22:17:44",-6.072663,106.8885,
Indonesia,"KM SK 3",,,"No data (CLASS B transponder)",,JAKARTA,0,Cargo,"2022-11-25 09:29:32",-6.104237,106.8114,IDJKT
Indonesia,"SPOB.GRAHA DUA TUJUH",,,"No data (CLASS B transponder)",,JAKARTA,0,Tanker,"2022-11-25 12:52:23",-6.098398,106.888,IDJKT
Indonesia,"TB MAIDEN WAY",,,"No data (CLASS B transponder)",,JAKARTA,0,Tug,"2022-11-24 22:41:49",-6.09719,106.9055,IDJKT
Indonesia,"MINERVA 88",,,"No data (CLASS B transponder)",,JAKARTA,0,Other,"2022-11-25 12:53:29",-6.084523,106.9635,IDJKT
Indonesia,"MITRA SEJAHTERA III",,,"No data (CLASS B transponder)",,JAKARTA,0,Tanker,"2022-11-24 12:25:31",-6.091279,106.9393,IDJKT
Indonesia,"TB. FPS 20",,,"No data (CLASS B transponder)",,"JAKARTA ANCH",0,Tug,"2022-11-25 12:06:57",-6.075875,106.8691,
Indonesia,"MITRA JAYA IV",,,"No data (CLASS B transponder)",,"JAKARTA ANCH",0,Tug,"2022-11-25 12:53:59",-6.055346,106.9427,
Indonesia,"KM.BANDAR BESTARI 03",,,"No data (CLASS B transponder)",,JAKARTA,0,Cargo,"2022-11-25 00:33:59",-6.066893,106.8084,IDJKT
Indonesia,"SPOB PACIFIC TRADER3",,,"No data (CLASS B transponder)",,JAKARTA,0,Tug,"2022-11-24 13:04:07",-6.086712,106.9329,IDJKT
Indonesia,CONSORSIUM,"JAKARTA ANCH",,"No data (CLASS B transponder)",,JAKARTA,0,Tug,"2022-11-24 23:05:42",-6.07494,106.9703,IDJKT
Indonesia,"TB HOSANA II",JAKARTA,,"No data (CLASS B transponder)",,JAKARTA,0,Tug,"2022-11-17 07:12:29",-6.069232,106.8714,IDJKT
Indonesia,"SHA 502",,,"No data (CLASS B transponder)",,JAKARTA,0,Other,"2022-11-25 12:53:26",-6.105999,106.8877,IDJKT
Indonesia,"MULTINDO LP 101",,,"No data (CLASS B transponder)",,JAKARTA,0,Tug,"2022-11-24 08:10:19",-6.101933,106.9533,IDJKT
Indonesia,"SINGSING POWER",,,"No data (CLASS B transponder)",,"JAKARTA ANCH",0,Tug,"2022-11-21 22:12:25",-6.074275,106.8734,
Indonesia,"KR.BAWAL PUTIH III",MUARA,"1900-01-01 00:00:00","MUARA BARU",,JAKARTA,0,Fishing,"2022-10-18 07:14:10",-6.09628,106.8003,IDJKT
Indonesia,"MPAC 01",JAKARTA,,"No data (CLASS B transponder)",,JAKARTA,0,"Special Craft","2022-11-25 12:53:56",-6.085497,106.884,IDJKT
Indonesia,"TRIJAYA SAMUDRA",JAKARTA,"2022-06-04 10:00:00",JAKARTA,,"JAKARTA ANCH",6705183,Cargo,"2022-06-04 03:57:38",-6.065923,106.8952,
Indonesia,"NEW LIGHT",,"1900-01-01 00:00:00",BTM,,JAKARTA,9046136,Cargo,"2021-12-14 07:14:40",-6.126275,106.8857,IDJKT
Indonesia,"PASUNDAN WARRIOR",,,"No data (CLASS B transponder)",,JAKARTA,0,Tanker,"2022-11-25 12:49:11",-6.090563,106.9311,IDJKT
Indonesia,"TB.AQILA HARBOUR",,,"No data (CLASS B transponder)",,JAKARTA,0,Tug,"2022-11-25 12:54:14",-6.09732,106.8916,IDJKT
Indonesia,"TB ASP TRIUMPH",JAKARTA,"2022-11-05 19:00:00",MARUNDA,,"JAKARTA ANCH",0,Tug,"2022-11-25 12:51:36",-6.046888,106.9601,
Indonesia,"LCT SANJAYA 05",,,"No data (CLASS B transponder)",,JAKARTA,0,Cargo,"2022-11-25 12:46:57",-6.111685,106.8677,IDJKT
Indonesia,"VOYAGER 17",,,"No data (CLASS B transponder)",,JAKARTA,0,Tug,"2022-11-25 12:53:16",-6.102016,106.8794,IDJKT
Indonesia,"COSTA FORTUNA 5",,,"No data (CLASS B transponder)",,JAKARTA,0,Tug,"2022-11-12 22:03:53",-6.092108,106.9036,IDJKT
Indonesia,"SULTAN KHAIDIR",,,"No data (CLASS B transponder)",,JAKARTA,0,"Sailing Vessel","2022-11-25 12:43:21",-6.096472,106.957,IDJKT
Indonesia,"IND WARSHIP 543",,"1900-01-01 00:00:00",,,JAKARTA,0,"Special Craft","2022-11-25 08:51:55",-6.105985,106.8918,IDJKT
Indonesia,"MITRA BAHARI 328",,,"No data (CLASS B transponder)",,JAKARTA,0,Tug,"2022-11-25 12:52:44",-6.112737,106.8113,IDJKT
Indonesia,KN.P355,,,"No data (CLASS B transponder)",,JAKARTA,0,"Special Craft","2022-11-25 00:53:20",-6.106427,106.8833,IDJKT
Indonesia,"TB TERUS DAYA 27",,,"No data (CLASS B transponder)",,JAKARTA,0,Tug,"2022-11-24 09:39:43",-6.071873,106.9693,IDJKT
Indonesia,"RATU GIOK 6",,,"No data (CLASS B transponder)",,"JAKARTA ANCH",0,Other,"2022-11-25 12:51:59",-6.023522,106.9518,
Indonesia,"TB SABANG XXI",,,"No data (CLASS B transponder)",,JAKARTA,0,Tug,"2022-11-24 01:05:36",-6.090843,106.7692,IDJKT
Indonesia,YUDISTIRA,,"1900-01-01 00:00:00",,,JAKARTA,0,"Special Craft","2022-10-16 01:48:27",-6.112262,106.8715,IDJKT
Indonesia,"TB. SANLE 20",,,"No data (CLASS B transponder)",,JAKARTA,0,Unspecified,"2022-11-25 04:50:15",-6.03645,106.9486,IDJKT
Indonesia,"TB.TANJUNG BAHARI 28",,,"No data (CLASS B transponder)",,JAKARTA,0,Tug,"2022-11-25 01:27:34",-6.11688,106.8091,IDJKT
Indonesia,"LCT.AYU 48",,,"No data (CLASS B transponder)",,"JAKARTA ANCH",0,Other,"2022-11-25 10:13:25",-6.069598,106.8915,
Indonesia,"TB BERKAT MANDIRI II","JAKARTA ANCH",,"No data (CLASS B transponder)",,"JAKARTA ANCH",0,Tug,"2022-11-25 12:40:08",-6.06659,106.946,
Indonesia,"KLM RACHIM J INDAH",,,"No data (CLASS B transponder)",,JAKARTA,0,Cargo,"2022-11-20 15:18:57",-6.12069,106.8087,IDJKT
Indonesia,"TB KAN XII",,,"No data (CLASS B transponder)",,"JAKARTA ANCH",0,Tug,"2022-11-25 12:53:05",-6.057885,106.9531,
Indonesia,KLM.BUNGAHAERULUTAMA,,,"No data (CLASS B transponder)",,JAKARTA,0,Cargo,"2022-11-25 12:51:54",-6.113727,106.8094,IDJKT
Indonesia,"SPOB PETRO ENERGY",,,"No data (CLASS B transponder)",,"JAKARTA ANCH",0,Tanker,"2022-11-25 12:49:32",-6.078132,106.8948,
Indonesia,"SANTOSO HS",,,"No data (CLASS B transponder)",,JAKARTA,0,"Pleasure Craft","2022-11-10 05:01:36",-6.124102,106.8297,IDJKT
Indonesia,"TB SING SING 189",,,"No data (CLASS B transponder)",,"JAKARTA ANCH",0,Tug,"2022-11-22 00:56:50",-6.073349,106.8622,
Indonesia,"KN MITRA UTAMA",JAKARTA,"1900-01-01 00:00:00","ID JKT",,JAKARTA,0,Fishing,"2022-11-21 05:21:47",-6.11944,106.865,IDJKT
Indonesia,"AS POWER 5",,,"No data (CLASS B transponder)",,"JAKARTA ANCH",0,Tug,"2022-11-25 04:38:49",-6.04758,106.9502,
Indonesia,"MPC 04",JAKARTA,,"No data (CLASS B transponder)",,JAKARTA,0,"Special Craft","2022-11-12 04:07:11",-6.10674,106.8914,IDJKT
Indonesia,"BOMAS GENIUS",,,"No data (CLASS B transponder)",,JAKARTA,0,Tug,"2022-11-25 12:54:09",-6.075517,106.9705,IDJKT
Indonesia,"CABEL PROTECTOR",,,"No data (CLASS B transponder)",,JAKARTA,0,Other,"2022-11-25 05:24:50",-6.125164,106.8094,IDJKT
Indonesia,"KAIMANA INDAH",,"1900-01-01 00:00:00",REDE0MRAOKE,,JAKARTA,0,Unspecified,"2022-11-24 00:52:04",-6.074752,106.9709,IDJKT
Indonesia,"TB.KELINCI MAS 6",,,"No data (CLASS B transponder)",,JAKARTA,0,Tug,"2022-11-24 22:43:39",-6.078228,106.9713,IDJKT
Indonesia,"ARMADA KALTIM 01",,,"No data (CLASS B transponder)",,"JAKARTA ANCH",0,Tug,"2022-11-25 09:50:01",-6.029608,106.955,
Indonesia,"TB GADING 1",,,"No data (CLASS B transponder)",,JAKARTA,0,"Pleasure Craft","2022-11-25 12:53:46",-6.111104,106.8693,IDJKT
Indonesia,"CAVALO MARINHO 03",,,"No data (CLASS B transponder)",,"JAKARTA ANCH",0,Tug,"2022-11-25 12:52:59",-6.045645,106.9558,
Indonesia,"TB BLUE ORCA",,,"No data (CLASS B transponder)",,JAKARTA,0,Tug,"2022-11-25 03:00:01",-6.113953,106.8619,IDJKT
Indonesia,"STELLA 28",,,"No data (CLASS B transponder)",,"JAKARTA ANCH",0,Other,"2022-11-18 23:26:47",-6.068425,106.8797,
Indonesia,"SPOB PERSADA UTAMA 9",,,"No data (CLASS B transponder)",,"JAKARTA ANCH",0,Tanker,"2022-11-25 12:47:40",-6.06836,106.9548,
Indonesia,"TASIK NAMBUS",JAKARTA,"2022-07-25 19:00:00",,,JAKARTA,0,Unspecified,"2022-10-05 01:28:36",-6.094264,106.9585,IDJKT
Indonesia,"TB SACCI HARBOUR",,,"No data (CLASS B transponder)",,JAKARTA,0,Tug,"2022-11-25 12:52:59",-6.10278,106.8912,IDJKT
Indonesia,"TB.TRUST 97",,,"No data (CLASS B transponder)",,JAKARTA,0,Tug,"2022-11-17 10:15:43",-6.11823,106.8658,IDJKT
Indonesia,"MPAC 02",JAKARTA,,"No data (CLASS B transponder)",,JAKARTA,0,"Special Craft","2022-11-25 12:52:55",-6.094353,106.8875,IDJKT
Indonesia,"SAKATA MAJU 11",,,"No data (CLASS B transponder)",,JAKARTA,0,Tug,"2022-11-25 07:30:15",-6.100648,106.9543,IDJKT
Indonesia,"SPOB BOJONEGORO VII",JAKARTA,,"No data (CLASS B transponder)",,"JAKARTA ANCH",0,Other,"2022-11-24 22:29:38",-6.074626,106.899,
Indonesia,"KP SADEWA",,"1900-01-01 00:00:00",0,,JAKARTA,0,"Special Craft","2022-11-15 05:44:02",-6.112605,106.8717,IDJKT
Indonesia,"TB KWAN 7",,,"No data (CLASS B transponder)",,JAKARTA,0,Tug,"2022-11-25 11:17:24",-6.074095,106.9701,IDJKT
Indonesia,"QUICKSILVER VI",JAKARTA,"1900-01-01 00:00:00",JAKARTA,,JAKARTA,0,Passenger,"2022-11-21 11:34:43",-6.120293,106.8131,IDJKT
Indonesia,"TB CAHAYA TIMUR 05",,,"No data (CLASS B transponder)",,"JAKARTA ANCH",0,Tug,"2022-11-25 12:54:03",-6.06437,106.9519,
Indonesia,"SRIWIJAYA 7",,,"No data (CLASS B transponder)",,JAKARTA,0,Tanker,"2022-11-25 12:52:17",-6.088235,106.9321,IDJKT
Indonesia,"KM BANGKA JAYA 8",,,"No data (CLASS B transponder)",,JAKARTA,0,Fishing,"2022-11-12 12:58:44",-6.097513,106.8006,IDJKT
Indonesia,"MICHAEL 5",JAKARTA,,"No data (CLASS B transponder)",,"JAKARTA ANCH",0,Tanker,"2022-11-25 03:47:40",-6.07802,106.8769,
Indonesia,"TANJUNG BAHARI 21",,,"No data (CLASS B transponder)",,"JAKARTA ANCH",0,Tug,"2022-08-15 00:23:55",-6.108839,106.8104,
Indonesia,"TB.BARITO AGUNG",,,"No data (CLASS B transponder)",,"JAKARTA ANCH",0,Tug,"2022-11-25 12:53:58",-6.06966,106.863,
Indonesia,"TB.LLB SUKSES 17",,,"No data (CLASS B transponder)",,JAKARTA,0,Tug,"2022-11-24 07:40:27",-6.112797,106.8652,IDJKT
Indonesia,"TB.VOYAGER 16",,,"No data (CLASS B transponder)",,JAKARTA,0,Tug,"2022-11-25 12:53:43",-6.075497,106.9713,IDJKT
Indonesia,"TB JOHAN JAYA 123",,,"No data (CLASS B transponder)",,"JAKARTA ANCH",0,Tug,"2022-11-25 12:53:43",-6.055965,106.9482,
Indonesia,"TB.SINAR MARINE",,,"No data (CLASS B transponder)",,"JAKARTA ANCH",0,Tug,"2022-11-25 09:40:17",-6.052182,106.9488,
Indonesia,"TB PRATAMA II",,,"No data (CLASS B transponder)",,"JAKARTA ANCH",0,Tug,"2022-11-21 17:01:29",-5.988077,106.9393,
Indonesia,"TB PRIMA STAR 7",,,"No data (CLASS B transponder)",,"JAKARTA ANCH",0,Tug,"2022-11-25 10:56:47",-6.049562,106.9417,
Indonesia,"SPOB OSCAR",,,"No data (CLASS B transponder)",,"JAKARTA ANCH",0,Tanker,"2022-11-25 12:48:42",-6.076635,106.8992,
Indonesia,"KT. BIMA XI",,,"No data (CLASS B transponder)",,JAKARTA,0,Tug,"2022-11-25 12:53:48",-6.100377,106.8781,IDJKT
Indonesia,"KN ENGGANO",JAKARTA,"2022-12-15 21:00:00",,,JAKARTA,0,"Special Craft","2022-10-22 05:15:20",-6.118695,106.865,IDJKT
Indonesia,"KP KEPODANG",JAKARTA,"1900-01-01 00:00:00",,,JAKARTA,0,Unspecified,"2022-11-10 05:03:37",-6.112608,106.8716,IDJKT
Indonesia,"KP.KRESNA 7004",MAKASSAR,"1900-01-01 00:00:00",MAKASSAR,,JAKARTA,0,Other,"2022-11-10 02:30:52",-6.113892,106.8712,IDJKT
Indonesia,"KP ENGGANO",,"1900-01-01 00:00:00",,,JAKARTA,0,"Special Craft","2022-11-15 05:49:37",-6.101653,106.9096,IDJKT
Indonesia,"TB TIRTA BAHARI 01",,,"No data (CLASS B transponder)",,JAKARTA,0,Tug,"2022-11-22 12:54:59",-6.101972,106.9533,IDJKT
Indonesia,"JASA LAUT 02",,,"No data (CLASS B transponder)",,JAKARTA,0,Other,"2022-11-06 02:58:04",-6.098905,106.8007,IDJKT
Indonesia,"BERKAT BAHARI 1",,,"No data (CLASS B transponder)",,"JAKARTA ANCH",0,Tug,"2022-11-25 12:52:28",-6.059738,106.9528,
Indonesia,"SAMUDRA JAYA RAYA",,,"No data (CLASS B transponder)",,JAKARTA,0,Fishing,"2022-11-20 23:05:31",-6.0944,106.803,IDJKT
Indonesia,"ASP GLORY",JAKARTA,"2022-05-10 04:00:00",MARUNDA,,"JAKARTA ANCH",0,"Wing in Grnd","2022-11-25 12:51:06",-6.062823,106.9523,
Indonesia,"SPOB GRAHA TIGA",,,"No data (CLASS B transponder)",,JAKARTA,0,Tanker,"2022-11-25 12:53:24",-6.097688,106.9066,IDJKT
Indonesia,"KM VALLERIE 2",,,"No data (CLASS B transponder)",,JAKARTA,0,Fishing,"2022-11-16 13:53:24",-6.107207,106.8737,IDJKT
Indonesia,"KM SEJAHTERA 21",,,"No data (CLASS B transponder)",,JAKARTA,0,Cargo,"2022-11-06 12:42:50",-6.096852,106.9113,IDJKT
Indonesia,"OCEAN DREAM",,,"No data (CLASS B transponder)",,JAKARTA,0,"Pleasure Craft","2022-11-24 01:47:01",-6.101682,106.7912,IDJKT
Indonesia,"SPOB JOHAN 1",,,"No data (CLASS B transponder)",,"JAKARTA ANCH",0,Tanker,"2022-11-24 22:20:17",-6.078722,106.8902,
Indonesia,"SAMUDRA SINDO 9",,,"No data (CLASS B transponder)",,"JAKARTA ANCH",0,Tug,"2022-11-25 12:50:48",-6.053033,106.9435,
Indonesia,"TB KENCANA PRIMA II",,,"No data (CLASS B transponder)",,JAKARTA,0,Tug,"2022-11-25 12:52:35",-6.101952,106.9533,IDJKT
Indonesia,"TB. NRL 9280",,,"No data (CLASS B transponder)",,"JAKARTA ANCH",0,Tug,"2022-11-25 12:09:14",-6.050742,106.9601,
Indonesia,"AUGUSTINE PHINISI",,,"No data (CLASS B transponder)",,JAKARTA,0,Passenger,"2022-11-22 11:47:54",-6.118905,106.8451,IDJKT
Indonesia,KP.GELATIK,KETAPANG,"1900-01-01 00:00:00",,,JAKARTA,0,"Special Craft","2022-02-02 02:33:29",-6.07835,106.8814,IDJKT
Indonesia,"JOHAN JAYA 138",,,"No data (CLASS B transponder)",,"JAKARTA ANCH",0,Tug,"2022-11-05 22:14:39",-6.054625,106.9616,
Indonesia,"TB.NELLY 59",,,"No data (CLASS B transponder)",,JAKARTA,0,Tug,"2022-11-24 09:36:23",-6.084271,106.9412,IDJKT
Indonesia,"KILAT MAJU JAYA IX",,,"No data (CLASS B transponder)",,JAKARTA,0,Fishing,"2022-11-05 21:04:40",-6.100272,106.8038,IDJKT
Indonesia,KP.PERENJAK,JAKARTA,"1900-01-01 00:00:00",JAKARTA,,JAKARTA,0,"Special Craft","2022-11-10 06:31:09",-6.11349,106.8716,IDJKT
Indonesia,"TB MITRA KENCANA V",,,"No data (CLASS B transponder)",,"JAKARTA ANCH",0,Tug,"2022-11-25 12:43:29",-6.058939,106.9562,
Indonesia,"TB TINJU",,,"No data (CLASS B transponder)",,JAKARTA,0,Tug,"2022-11-11 01:26:09",-6.114927,106.8705,IDJKT
Indonesia,ELVIO,,,"No data (CLASS B transponder)",,"JAKARTA ANCH",0,Other,"2022-11-23 10:30:31",-6.060223,106.9502,
Indonesia,"TB.KAN V",,,"No data (CLASS B transponder)",,"JAKARTA ANCH",0,Tug,"2022-11-06 22:26:20",-6.047962,106.9562,
Indonesia,"TB BILLITON XV",,,"No data (CLASS B transponder)",,"JAKARTA ANCH",0,Tug,"2022-11-20 22:32:53",-6.053936,106.9471,
Indonesia,"KM UNITED XVII",,,"No data (CLASS B transponder)",,JAKARTA,0,Fishing,"2022-11-16 04:15:52",-6.10117,106.8042,IDJKT
Indonesia,"BANGKA JAYA 1",,,"No data (CLASS B transponder)",,JAKARTA,0,Cargo,"2022-11-17 22:28:51",-6.099158,106.8018,IDJKT
Indonesia,KRI,,"2022-10-02 08:30:00","MP.ALEXINDO 8",,JAKARTA,0,"Special Craft","2022-10-14 00:30:38",-5.979424,106.8085,IDJKT
Indonesia,"SPOB GRAHA DUA DUA",JAKARTA,,"No data (CLASS B transponder)",,JAKARTA,0,Tanker,"2022-11-21 05:33:32",-6.084752,106.8835,IDJKT
Indonesia,"SPOB BOJONEGORO I",JAKARTA,,"No data (CLASS B transponder)",,"JAKARTA ANCH",0,Tanker,"2022-11-24 14:32:56",-6.077547,106.8934,
Indonesia,"LM VICTOR",,,"No data (CLASS B transponder)",,"JAKARTA ANCH",0,Tug,"2022-11-25 12:51:52",-6.0543,106.9479,
Indonesia,"SINAR HARAPAN III",,,"No data (CLASS B transponder)",,JAKARTA,0,Cargo,"2022-11-03 20:20:08",-6.116518,106.8078,IDJKT
Indonesia,"SINAR SEMBULUH",,,"No data (CLASS B transponder)",,JAKARTA,0,Cargo,"2022-11-09 15:23:56",-6.121648,106.8087,IDJKT
Indonesia,"TB SURABAYA MANDIRI1",,,"No data (CLASS B transponder)",,"JAKARTA ANCH",0,Tug,"2022-11-23 08:07:17",-6.056405,106.945,
Indonesia,"TB BERKAT JAYA",,,"No data (CLASS B transponder)",,JAKARTA,0,Tug,"2022-10-31 08:15:25",-6.142917,106.8156,IDJKT
Indonesia,"TB BADAK AQUARIA",,,"No data (CLASS B transponder)",,JAKARTA,0,Tug,"2022-11-11 09:07:35",-6.118488,106.8654,IDJKT
Indonesia,"GAJAH LAUT",,"1900-01-01 00:00:00",,,JAKARTA,0,Tug,"2022-11-14 16:56:42",-6.11144,106.8717,IDJKT
Indonesia,"TB KAWAN KITA II",,,"No data (CLASS B transponder)",,"JAKARTA ANCH",0,Tug,"2022-11-01 02:47:16",-6.017475,106.8722,
Indonesia,"KM.MAULANA 26",,,"No data (CLASS B transponder)",,JAKARTA,0,Fishing,"2022-11-08 06:39:59",-6.094185,106.8031,IDJKT
Indonesia,"TB TIRTA BAHARI 03",,,"No data (CLASS B transponder)",,"JAKARTA ANCH",0,Tug,"2022-11-14 07:55:39",-6.053232,106.9509,
Indonesia,"HASIL LAUT 216",,,"No data (CLASS B transponder)",,JAKARTA,0,Fishing,"2022-10-28 10:54:08",-6.094614,106.7998,IDJKT
Indonesia,"SUMBER KARYA",,,"No data (CLASS B transponder)",,JAKARTA,0,Unspecified,"2022-11-15 21:33:48",-6.082187,106.7936,IDJKT
Indonesia,"HASIL LAUT 3",,,"No data (CLASS B transponder)",,JAKARTA,0,Fishing,"2022-11-04 04:11:40",-6.097609,106.802,IDJKT
Indonesia,"TB.SEROJA STAR1",,,"No data (CLASS B transponder)",,JAKARTA,0,Tug,"2022-11-09 10:12:41",-6.083552,106.9609,IDJKT
Indonesia,"KN. MIAPLACIDUS",,"2022-11-07 13:00:00","PANGKALAN DISNAV TPK",,JAKARTA,0,Passenger,"2022-10-25 03:31:40",-6.118975,106.865,IDJKT
Indonesia,"SPOB.ORIENT 88",,,"No data (CLASS B transponder)",,"JAKARTA ANCH",0,Other,"2022-10-24 22:29:55",-6.077555,106.8917,
Indonesia,"KM TIRTA SARI",,,"No data (CLASS B transponder)",,JAKARTA,0,"Pleasure Craft",,-2.15457,109.16,IDJKT
Indonesia,"BARUNA FORTUNA 2",,,"No data (CLASS B transponder)",,JAKARTA,0,Cargo,"2022-10-20 08:40:02",-6.129455,106.8054,IDJKT
Indonesia,"PULOMAS LANCAR",,,"No data (CLASS B transponder)",,"JAKARTA ANCH",0,Tanker,"2022-11-23 15:55:25",-6.077715,106.8895,
Indonesia,"TB.ARMANSYA FORTUN03",,,"No data (CLASS B transponder)",,"JAKARTA ANCH",0,Tug,"2022-11-25 12:52:20",-6.078632,106.8634,
Indonesia,"SIJM V",,,"No data (CLASS B transponder)",,JAKARTA,0,Fishing,"2022-11-09 03:41:22",-6.102077,106.8033,IDJKT
Indonesia,"SUKSES 1200",,,"No data (CLASS B transponder)",,JAKARTA,0,Tug,"2022-11-25 12:53:20",-6.082778,106.9621,IDJKT
Indonesia,"KM. DAMASHA 5",,,"No data (CLASS B transponder)",,JAKARTA,0,Fishing,"2022-11-15 14:54:35",-6.099952,106.8011,IDJKT
Indonesia,"SHINEI NO 12",,,"No data (CLASS B transponder)",,JAKARTA,0,Cargo,"2022-11-23 10:12:09",-6.122328,106.812,IDJKT
Indonesia,"KPC III",,,"No data (CLASS B transponder)",,JAKARTA,0,Fishing,"2022-11-24 08:06:43",-6.113101,106.8271,IDJKT
Indonesia,"MITRA SAMUDERA JAYA1",,,"No data (CLASS B transponder)",,JAKARTA,0,Fishing,"2022-11-25 03:39:34",-6.099833,106.8033,IDJKT
Indonesia,"STARINDO JAYA V",,,"No data (CLASS B transponder)",,JAKARTA,0,Fishing,"2022-11-25 05:48:14",-6.097402,106.8016,IDJKT
Indonesia,"KLM. BAITUS SALAM",,,"No data (CLASS B transponder)",,JAKARTA,0,Cargo,"2022-11-20 17:39:47",-6.11592,106.8077,IDJKT
Indonesia,"ELMA MARIS",,,"No data (CLASS B transponder)",,JAKARTA,0,"Pleasure Craft","2022-11-24 06:38:57",-6.102875,106.7936,IDJKT
Indonesia,"KP.PANJANG VII 2019",,,"No data (CLASS B transponder)",,JAKARTA,0,"Special Craft","2022-11-25 02:11:04",-6.09711,106.7943,IDJKT
Indonesia,"SPOB HARAPAN MAT 77",,,"No data (CLASS B transponder)",,JAKARTA,0,Tanker,"2022-11-01 11:51:53",-6.091902,106.9294,IDJKT
Indonesia,"SATYA BERJAYA",,,"No data (CLASS B transponder)",,JAKARTA,0,Cargo,"2022-11-23 08:52:43",-6.105602,106.8103,IDJKT
Indonesia,BUNGAMULIASEJAHTERA,,,"No data (CLASS B transponder)",,JAKARTA,0,Cargo,"2022-11-19 17:02:28",-6.116248,106.8079,IDJKT
Indonesia,"KSA 121",,,"No data (CLASS B transponder)",,"JAKARTA ANCH",0,Tug,"2022-11-25 12:53:00",-6.024107,106.9578,
Indonesia,"TRI JAYA XIX",,,"No data (CLASS B transponder)",,JAKARTA,0,Fishing,"2022-11-06 12:13:47",-6.096455,106.8033,IDJKT
Indonesia,"KM. INTAN SAMUDRA 23",,,"No data (CLASS B transponder)",,JAKARTA,0,Cargo,"2022-11-23 15:16:40",-6.09612,106.8081,IDJKT
Indonesia,"KM INFINITY 5",,,"No data (CLASS B transponder)",,JAKARTA,0,Fishing,"2022-11-06 13:52:39",-6.100918,106.8039,IDJKT
Indonesia,"KM CALVIN III",,,"No data (CLASS B transponder)",,JAKARTA,0,Fishing,"2022-11-12 13:42:55",-6.098492,106.801,IDJKT
Indonesia,"ASP 23",,,"No data (CLASS B transponder)",,JAKARTA,0,Tug,"2022-11-22 09:46:10",-6.106743,106.9572,IDJKT
Indonesia,"KM.UNITED XIV",,,"No data (CLASS B transponder)",,JAKARTA,0,Fishing,"2022-11-10 04:39:18",-6.102223,106.8026,IDJKT
Indonesia,"SINAR ARINDO 6",,,"No data (CLASS B transponder)",,JAKARTA,0,Unspecified,"2022-11-23 10:42:35",-6.096478,106.8021,IDJKT
Indonesia,ANDALANSUMBERLAUT,,,"No data (CLASS B transponder)",,JAKARTA,0,Fishing,"2022-11-25 12:53:26",-6.097187,106.8017,IDJKT
Indonesia,"KM HASIL JAYA VIII",,,"No data (CLASS B transponder)",,JAKARTA,0,Fishing,"2022-11-12 06:39:54",-6.102052,106.8032,IDJKT
Indonesia,"MATAHARI SUKSES 7A",,,"No data (CLASS B transponder)",,JAKARTA,0,Fishing,"2022-11-15 22:10:59",-6.08885,106.8043,IDJKT
Indonesia,"KP PRAHASTA 7015",BALIKPAPAN,"1900-01-01 00:00:00",,,JAKARTA,0,Unspecified,"2022-11-14 03:50:01",-6.112675,106.8717,IDJKT
Indonesia,"KM BSP",,,"No data (CLASS B transponder)",,JAKARTA,0,Fishing,"2022-11-02 14:00:07",-6.099518,106.8012,IDJKT
Indonesia,"SETIA JAYA 88",,,"No data (CLASS B transponder)",,JAKARTA,0,Fishing,"2022-11-16 16:59:52",-6.094377,106.8029,IDJKT
Indonesia,"GLORY 99",,,"No data (CLASS B transponder)",,JAKARTA,0,Tug,"2022-11-25 12:49:50",-6.100811,106.9542,IDJKT
Indonesia,"MAKMUR JAYA 88",,,"No data (CLASS B transponder)",,JAKARTA,0,"High Speed Craft","2022-11-13 14:11:42",-6.10302,106.7752,IDJKT
Indonesia,"INDAH JAYA MAKMUR I",,,"No data (CLASS B transponder)",,JAKARTA,0,Fishing,"2022-11-07 07:41:40",-6.09997,106.8021,IDJKT
Indonesia,"KM SUN RISE I",,,"No data (CLASS B transponder)",,JAKARTA,0,Fishing,"2022-11-14 00:17:40",-6.09875,106.8031,IDJKT
Indonesia,"TB.TUNAS BARU LESTAR",,,"No data (CLASS B transponder)",,JAKARTA,0,Tug,"2022-11-24 09:32:44",-6.111572,106.8729,IDJKT
Indonesia,"BINTANG NATUNA JAYA",,,"No data (CLASS B transponder)",,JAKARTA,0,Cargo,"2022-11-24 04:50:30",-6.118212,106.8095,IDJKT
Indonesia,"ASP 18",,,"No data (CLASS B transponder)",,JAKARTA,0,Tug,"2022-11-23 04:20:10",-6.106143,106.9565,IDJKT
Indonesia,"SJS SERVIC",CHITTAGONG,"1900-01-01 00:00:00",,,JAKARTA,0,Other,"2020-09-09 08:31:16",-6.120972,106.8761,IDJKT
Indonesia,"KLM HIKMA MADANI",,,"No data (CLASS B transponder)",,JAKARTA,0,Cargo,"2022-11-24 10:23:10",-6.115297,106.8082,IDJKT
Indonesia,"KLM SENTOSA BAHAGIA",,,"No data (CLASS B transponder)",,JAKARTA,0,Cargo,"2022-11-20 16:25:46",-6.116008,106.8078,IDJKT
Indonesia,"ARGO 8",,,"No data (CLASS B transponder)",,JAKARTA,0,Tug,"2022-11-25 06:32:30",-6.11336,106.8725,IDJKT
Indonesia,"SOLA GRACIA",,,"No data (CLASS B transponder)",,JAKARTA,0,"Pleasure Craft","2022-11-17 01:13:49",-6.100598,106.7935,IDJKT
Indonesia,"TB PANGERAN LAKSNA99",,,"No data (CLASS B transponder)",,JAKARTA,0,Tug,"2022-11-25 10:30:31",-6.039045,106.956,IDJKT
Indonesia,"KLM RAHIM J MANDIRI",,,"No data (CLASS B transponder)",,JAKARTA,0,Cargo,"2022-11-20 15:00:58",-6.116335,106.8079,IDJKT
Indonesia,CAKRAWALA4,JAKARTA,,"No data (CLASS B transponder)",,JAKARTA,0,Fishing,"2022-11-17 23:11:58",-6.09749,106.802,IDJKT
Indonesia,"KM.SUNJAYA III",,,"No data (CLASS B transponder)",,JAKARTA,0,Fishing,"2022-11-11 23:58:38",-6.098005,106.8036,IDJKT
Indonesia,"KM ABADI MAJU II",,,"No data (CLASS B transponder)",,JAKARTA,0,Fishing,"2022-11-17 01:55:48",-6.091025,106.8018,IDJKT
Indonesia,"KM. MARGO ASIH VII",,,"No data (CLASS B transponder)",,JAKARTA,0,Fishing,"2022-11-23 15:21:23",-6.099832,106.8017,IDJKT
Indonesia,"KLM ANUGERAH JAYA",,,"No data (CLASS B transponder)",,JAKARTA,0,Cargo,"2022-11-19 20:26:56",-6.123895,106.8092,IDJKT
Indonesia,"KM. MJB",,,"No data (CLASS B transponder)",,JAKARTA,0,Fishing,"2022-11-25 10:02:42",-6.098965,106.8025,IDJKT
Indonesia,"SOSIAL MEGAH PERMAI",,,"No data (CLASS B transponder)",,JAKARTA,0,Unspecified,"2022-11-12 09:29:04",-6.118108,106.8082,IDJKT
Indonesia,"KLM PUTRA SELEBES JY",,,"No data (CLASS B transponder)",,JAKARTA,0,Cargo,"2022-11-24 23:19:15",-6.117898,106.8082,IDJKT
Indonesia,"KLM.COLUMBUS HALID",,,"No data (CLASS B transponder)",,JAKARTA,0,Cargo,"2022-11-17 22:15:14",-6.120345,106.8085,IDJKT
Indonesia,"KLM BUANA EKA JAYA",,,"No data (CLASS B transponder)",,JAKARTA,0,"Sailing Vessel","2022-11-23 16:54:49",-6.124298,106.8093,IDJKT
Indonesia,"TB KAWAN KITA XI",,,"No data (CLASS B transponder)",,"JAKARTA ANCH",0,Tug,"2022-11-24 15:57:54",-6.064985,106.9534,
Indonesia,"KLM COLOMBUS AGUNG",,,"No data (CLASS B transponder)",,JAKARTA,0,Cargo,"2022-11-16 11:37:56",-6.116712,106.8078,IDJKT
Indonesia,"KLM HIDAYAH AKBAR",,,"No data (CLASS B transponder)",,JAKARTA,0,Cargo,"2022-11-14 06:33:41",-6.118952,106.8084,IDJKT
Indonesia,"TB SATRIA NIAS","JAKARTA ANCH",,"No data (CLASS B transponder)",,"JAKARTA ANCH",0,Tug,"2022-11-25 12:51:52",-6.051597,106.9555,
Indonesia,SH,,"2022-12-31 00:00:00",,,JAKARTA,0,Fishing,"2022-10-29 03:36:02",-6.101397,106.8025,IDJKT
Indonesia,"KM SUN RISE IX",,,"No data (CLASS B transponder)",,JAKARTA,0,Fishing,"2022-10-30 02:01:26",-6.100893,106.8041,IDJKT
Indonesia,"KM SUMBER BAHARI II",,,"No data (CLASS B transponder)",,JAKARTA,0,Fishing,"2022-11-23 14:10:40",-6.100907,106.8037,IDJKT
Indonesia,"INDAH JAYA 3",,,"No data (CLASS B transponder)",,JAKARTA,0,Fishing,"2022-11-19 10:01:23",-6.098485,106.8007,IDJKT
Indonesia,"KM BINTANG ALAM",,,"No data (CLASS B transponder)",,JAKARTA,0,Fishing,"2022-10-30 13:02:45",-6.104218,106.7767,IDJKT
Indonesia,"TB CB 940",,,"No data (CLASS B transponder)",,JAKARTA,0,Tug,"2022-11-25 10:49:36",-6.111538,106.8689,IDJKT
Indonesia,"MARCOPOLO JAYA ABADI",,,"No data (CLASS B transponder)",,JAKARTA,0,Fishing,"2022-10-31 08:32:59",-6.098671,106.8008,IDJKT
Indonesia,"DR LIE DHARMAWAN II",,,"No data (CLASS B transponder)",,JAKARTA,0,Unspecified,"2022-10-25 00:41:59",-6.100577,106.773,IDJKT
Indonesia,SAMPURNAPERINTIS,,,"No data (CLASS B transponder)",,JAKARTA,0,Fishing,"2022-11-16 22:02:29",-6.094799,106.803,IDJKT
Indonesia,"BINTANG ARINDO UTAMA",,,"No data (CLASS B transponder)",,JAKARTA,0,Unspecified,"2022-10-24 06:17:24",-6.096925,106.8026,IDJKT
Indonesia,"KM THUNDER BIRD",,,"No data (CLASS B transponder)",,JAKARTA,0,"Pleasure Craft","2022-11-13 00:00:07",-6.023743,106.9154,IDJKT
Indonesia,33,,,"No data (CLASS B transponder)",,JAKARTA,0,Fishing,"2022-11-15 14:11:43",-6.098023,106.8025,IDJKT
Indonesia,M4KMUR.J4Y4.18,,,"No data (CLASS B transponder)",,JAKARTA,0,Fishing,"2022-11-11 04:16:00",-6.104118,106.7766,IDJKT
Indonesia,"KM MULTI S INDAH II",,,"No data (CLASS B transponder)",,JAKARTA,0,Fishing,"2022-10-22 09:45:01",-6.094618,106.8003,IDJKT
Indonesia,"KM SURYA MINA",,,"No data (CLASS B transponder)",,JAKARTA,0,Fishing,"2022-10-24 00:56:11",-6.094037,106.802,IDJKT
Indonesia,ERAMAS2,,,"No data (CLASS B transponder)",,JAKARTA,0,Fishing,"2022-10-23 17:07:43",-6.10093,106.8039,IDJKT
Indonesia,"KM.DWI JAYA",,,"No data (CLASS B transponder)",,JAKARTA,0,Fishing,"2022-11-25 04:37:05",-6.101445,106.8042,IDJKT
Indonesia,23076,,"1900-01-01 00:00:00","No data (CLASS B transponder)",,JAKARTA,0,Fishing,"2022-10-17 02:19:27",-6.094642,106.7996,IDJKT
Indonesia,BUNTA,,,"No data (CLASS B transponder)",,JAKARTA,0,"Pleasure Craft","2022-11-15 14:01:12",-6.118915,106.8652,IDJKT
Indonesia,"KP.SADEWA 7003",,,"No data (CLASS B transponder)",,JAKARTA,0,Unspecified,"2022-11-14 03:00:55",-6.112598,106.8717,IDJKT
Indonesia,"TB.PRIMA SAKTI VIII",,,"No data (CLASS B transponder)",,JAKARTA,0,Tug,"2022-11-25 12:52:10",-6.101673,106.8775,IDJKT
Indonesia,"KLM SYARIF PUSAKA PD",,,"No data (CLASS B transponder)",,JAKARTA,0,Cargo,"2022-11-18 06:07:22",-6.118438,106.8083,IDJKT
Indonesia,"KM SINARMINAPERKASA1",,,"No data (CLASS B transponder)",,JAKARTA,0,Fishing,"2022-10-20 17:05:18",-6.099555,106.8009,IDJKT
Indonesia,"KLM HARAPAN KITA B",,,"No data (CLASS B transponder)",,JAKARTA,0,Cargo,"2022-10-17 18:30:36",-6.120668,106.8087,IDJKT
Indonesia,"KM AQUARIUS VI",,,"No data (CLASS B transponder)",,JAKARTA,0,Fishing,"2022-10-12 04:31:22",-6.099498,106.8008,IDJKT
Indonesia,"KM INTAN SAMUDERA 2",,,"No data (CLASS B transponder)",,JAKARTA,0,"High Speed Craft","2022-11-24 05:38:12",-6.115967,106.8084,IDJKT
Indonesia,"KM PHS",,,"No data (CLASS B transponder)",,JAKARTA,0,Fishing,"2022-10-16 04:40:07",-6.099339,106.8038,IDJKT
Indonesia,"SUMBER JAYA VIII",,,"No data (CLASS B transponder)",,JAKARTA,0,Fishing,"2022-10-15 22:46:28",-6.099494,106.8033,IDJKT
Indonesia,"DWI SUKSES HARMONI",,,"No data (CLASS B transponder)",,JAKARTA,0,Tug,"2022-10-14 07:58:58",-6.094747,106.803,IDJKT
Indonesia,"FORTUNA VIII",,,"No data (CLASS B transponder)",,JAKARTA,0,Tug,"2022-11-16 17:43:19",-6.09956,106.803,IDJKT
Indonesia,"BINTANG JAYA II",,,"No data (CLASS B transponder)",,JAKARTA,0,Fishing,"2022-09-30 01:47:49",-6.103645,106.7773,IDJKT
Indonesia,"KM SUMBER JAYA 10",,,"No data (CLASS B transponder)",,JAKARTA,0,Fishing,"2022-11-12 06:06:23",-6.100393,106.8029,IDJKT
Indonesia,KM.TRIJAYA.07,,,"No data (CLASS B transponder)",,JAKARTA,0,Fishing,"2022-10-10 22:01:33",-6.095222,106.8027,IDJKT
Indonesia,KP.2005,,,"No data (CLASS B transponder)",,JAKARTA,0,"Special Craft","2022-11-10 02:22:01",-6.101851,106.9103,IDJKT
Indonesia,"MICHAEL 6",,,"No data (CLASS B transponder)",,JAKARTA,0,Tanker,"2022-08-30 01:47:30",-6.09172,106.9368,IDJKT
Indonesia,"ALKEN PUSPA",SURABAYA,"1900-01-01 00:00:00",,,JAKARTA,8823288,Cargo,"2022-05-31 02:19:41",-6.112813,106.8665,IDJKT
Indonesia,"CAKRAWALA XI",,,"No data (CLASS B transponder)",,JAKARTA,0,Fishing,"2022-10-03 23:46:49",-6.097267,106.8021,IDJKT
Indonesia,"IMMANUEL WGSR 5",,,"No data (CLASS B transponder)",,JAKARTA,0,Tug,"2022-09-21 00:15:57",-6.099048,106.7808,IDJKT
Indonesia,"SPOB ARLINE 02",JAKARTA,,"No data (CLASS B transponder)",,JAKARTA,0,Tanker,"2022-09-15 06:23:03",-6.086492,106.9319,IDJKT
Indonesia,TAGAMBERKAH,,,"No data (CLASS B transponder)",,JAKARTA,0,Unspecified,"2022-11-07 14:48:14",-5.979337,106.8087,IDJKT
Indonesia,"SURYA JAYA SAMPURNA",,,"No data (CLASS B transponder)",,JAKARTA,0,Fishing,"2022-09-28 09:19:15",-6.101662,106.8022,IDJKT
Indonesia,"KT.BESTWIN 88",,,"No data (CLASS B transponder)",,JAKARTA,0,Tug,"2022-09-26 06:51:57",-6.113733,106.8625,IDJKT
Indonesia,015397,,,"No data (CLASS B transponder)",,JAKARTA,0,Fishing,"2022-09-28 13:03:37",-6.100588,106.8025,IDJKT
Indonesia,"KM. WINSON",,,"No data (CLASS B transponder)",,JAKARTA,0,Fishing,"2022-09-24 08:14:03",-6.04912,106.7537,IDJKT
Indonesia,"KM LAUTAN MENTARI",,,"No data (CLASS B transponder)",,JAKARTA,0,Fishing,"2022-09-25 17:57:42",-6.101975,106.8033,IDJKT
Indonesia,"ROYAL PALMA 23",,,"No data (CLASS B transponder)",,JAKARTA,0,Tug,"2022-09-07 08:16:06",-6.0839,106.9386,IDJKT
Indonesia,"KM SUMBER REJEKI",,,"No data (CLASS B transponder)",,JAKARTA,0,Fishing,"2022-11-08 20:07:13",-6.104203,106.7768,IDJKT
Indonesia,"SUMATERA FORTUNE",JAKARTA,"1900-01-01 00:00:00",,,JAKARTA,7809376,Cargo,"2021-11-13 12:23:40",-6.134294,106.8321,IDJKT
Indonesia,TRISULA,CEBU,"2022-05-25 17:00:00",CEBU,,JAKARTA,0,Unspecified,"2022-08-22 21:27:51",-6.098668,106.8627,IDJKT
Indonesia,"SAM PROSPER 1",,,"No data (CLASS B transponder)",,JAKARTA,0,Tug,"2022-09-14 07:12:33",-6.09501,106.9571,IDJKT
Indonesia,"KM.MITRA JAYA 1",,,"No data (CLASS B transponder)",,JAKARTA,0,Fishing,"2022-09-15 03:17:20",-6.104162,106.7766,IDJKT
Indonesia,"KT.BIMA 2",,"1900-01-01 00:00:00",IDN,,JAKARTA,8610356,Tug,"2022-05-05 00:05:06",-6.106588,106.891,IDJKT
Indonesia,"KT. BIMA III",,,"No data (CLASS B transponder)",,JAKARTA,0,Tug,"2022-07-23 15:29:10",-6.114878,106.8633,IDJKT
Indonesia,"KLM RAHIM JAYA MURNI",,,"No data (CLASS B transponder)",,JAKARTA,0,Cargo,"2022-09-01 01:31:31",-6.1173,106.8081,IDJKT
Indonesia,"TKP 519",,"1900-01-01 00:00:00",,,JAKARTA,0,"Special Craft","2022-11-21 09:00:32",-6.095022,106.8766,IDJKT
Indonesia,"LANGSUNG JAYA INDAH",,,"No data (CLASS B transponder)",,JAKARTA,0,Fishing,"2022-08-28 04:57:34",-6.099583,106.8012,IDJKT
Indonesia,"KM DAMASHA II",,,"No data (CLASS B transponder)",,JAKARTA,0,Fishing,"2022-08-23 11:04:53",-6.09994,106.8011,IDJKT
Indonesia,TELAT,,"1900-01-01 00:00:00",,,JAKARTA,0,Unspecified,"2022-08-27 08:29:09",-6.101727,106.7913,IDJKT
Indonesia,"KM CAHAYA PAPUA",,,"No data (CLASS B transponder)",,JAKARTA,0,Fishing,"2022-08-24 06:53:33",-6.100904,106.8041,IDJKT
Indonesia,"BEST III",,"2019-10-26 08:00:00",SBY,,JAKARTA,7371044,Tanker,"2019-10-01 05:29:12",-7.087568,112.6561,IDJKT
Indonesia,"STARINDO JAYA MAJU",,,"No data (CLASS B transponder)",,JAKARTA,0,Fishing,"2022-07-17 03:51:52",-6.097147,106.8016,IDJKT
Indonesia,N,,,"No data (CLASS B transponder)",,JAKARTA,0,Fishing,"2022-08-21 02:43:16",-6.099862,106.8017,IDJKT
Indonesia,"ABIMANYU I",JAKARTA,"1900-01-01 00:00:00",,,JAKARTA,9872640,Tug,"2022-11-25 12:53:32",-6.096684,106.8836,IDJKT
Indonesia,"CITRAEXPRES 8",,,"No data (CLASS B transponder)",,JAKARTA,0,Fishing,"2022-08-03 10:47:06",-6.098687,106.8007,IDJKT
Indonesia,"TB SM V",JAMBI,"2022-09-09 08:00:00",JAMBI,,JAKARTA,0,Tug,"2022-06-03 07:32:01",-6.082482,106.938,IDJKT
Indonesia,"TB BATAVIA IV",JAKARTA,"1900-01-01 00:00:00",,,JAKARTA,9684249,Tug,"2021-10-27 06:44:48",-6.105669,106.8838,IDJKT
Indonesia,"KRI TCB 532",,"1900-01-01 00:00:00",,,JAKARTA,0,Unspecified,"2022-07-25 06:25:37",-6.095033,106.8766,IDJKT
Indonesia,KN.KARAKATA,,"2022-11-07 13:00:00","PANGKALAN DISNAV TPK",,JAKARTA,0,Passenger,"2022-06-29 08:42:40",-6.119009,106.865,IDJKT
Indonesia,HOREE,,"1900-01-01 00:00:00",,,JAKARTA,0,Unspecified,"2022-06-28 09:02:41",-6.134323,106.8321,IDJKT
Indonesia,"TB.BLUE ORCA",JAKARTA,,"No data (CLASS B transponder)",,JAKARTA,0,Tug,"2022-06-13 12:25:41",-6.104422,106.9071,IDJKT
Indonesia,"ADRI L IND ARMY",JAKARTA,"2022-06-19 23:00:00",JAKARTA,,JAKARTA,0,"Special Craft","2022-11-23 04:55:19",-6.109778,106.8779,IDJKT
Indonesia,"KM CAHAYA MAKMUR",,,"No data (CLASS B transponder)",,JAKARTA,0,Fishing,"2022-07-18 11:48:02",-6.097925,106.8017,IDJKT
Indonesia,"GARUDA JAYA III",,,"No data (CLASS B transponder)",,JAKARTA,0,Fishing,"2022-07-16 08:12:57",-6.0954,106.7993,IDJKT
Indonesia,"HASIL MUJUR",,,"No data (CLASS B transponder)",,JAKARTA,0,Fishing,"2022-07-12 07:17:49",-6.101861,106.8028,IDJKT
Indonesia,"BANDAR BESTARI",,,"No data (CLASS B transponder)",,JAKARTA,0,Cargo,"2022-05-30 11:33:36",-6.049277,106.8083,IDJKT
Indonesia,"KM BINTANG SEJATI I",,,"No data (CLASS B transponder)",,JAKARTA,0,Fishing,"2022-11-09 09:22:08",-6.099268,106.8038,IDJKT
Indonesia,"MPAC 03",MERAK,"2022-08-26 10:45:00",,,JAKARTA,0,Other,"2022-06-28 00:16:32",-6.095452,106.8841,IDJKT
Indonesia,40,,,"No data (CLASS B transponder)",,JAKARTA,0,Fishing,"2022-07-05 08:49:20",-6.100457,106.8025,IDJKT
Indonesia,"KN SAR GANESHA",,"1900-01-01 00:00:00",,,JAKARTA,0,"Search and Rescue","2022-07-06 06:14:23",-6.111587,106.8687,IDJKT
Indonesia,"HARAPAN KITA",,,"No data (CLASS B transponder)",,JAKARTA,0,Fishing,"2022-06-30 23:44:20",-6.099012,106.8017,IDJKT
Indonesia,"KM PRIMA NUSANTARA",,,"No data (CLASS B transponder)",,JAKARTA,0,Fishing,"2022-06-29 05:36:09",-6.099337,106.8039,IDJKT
Indonesia,"KLM RAHMATIA SENTOSA",,,"No data (CLASS B transponder)",,JAKARTA,0,Other,"2022-10-31 17:02:44",-6.115485,106.8084,IDJKT
Indonesia,"SEA CARRIER I",JAKARTA,"2021-12-22 09:00:00",MARUNDA,,JAKARTA,8220319,"Special Craft","2022-01-12 07:09:24",-6.109578,106.8935,IDJKT
Indonesia,"HARAPAN JAYA 27",,,"No data (CLASS B transponder)",,JAKARTA,0,Fishing,"2022-06-25 07:33:27",-6.103968,106.7772,IDJKT
Indonesia,"IDN WARSHIP 935","JAKARTA ANCH","1900-01-01 00:00:00",,,JAKARTA,0,Unspecified,"2022-05-26 09:35:17",-6.10645,106.8871,IDJKT
Indonesia,"KM YUDISTIRA",,,"No data (CLASS B transponder)",,JAKARTA,0,Fishing,"2022-06-25 07:38:17",-6.096,106.7993,IDJKT
Indonesia,"KM.MADINA 5",,,"No data (CLASS B transponder)",,JAKARTA,0,Cargo,"2022-06-27 17:06:42",-6.096258,106.7925,IDJKT
Indonesia,"JESSICA BRILLIANT",,,"No data (CLASS B transponder)",,JAKARTA,0,Other,"2022-06-14 02:07:19",-6.08357,106.9621,IDJKT
Indonesia,"TOB 10",,,"No data (CLASS B transponder)",,JAKARTA,0,Tug,"2022-05-23 05:04:35",-6.032468,106.9443,IDJKT
Indonesia,"KLM LAMALLISE",,,"No data (CLASS B transponder)",,JAKARTA,0,Cargo,"2022-06-16 19:30:03",-6.116776,106.8079,IDJKT
Indonesia,"KM LADY R",,,"No data (CLASS B transponder)",,JAKARTA,0,"Pleasure Craft","2022-05-27 08:45:41",-6.099808,106.7915,IDJKT
Indonesia,"KM SIN TOBA JAYA 68",,,"No data (CLASS B transponder)",,JAKARTA,0,Fishing,"2022-06-05 11:31:55",-6.097088,106.8019,IDJKT
Indonesia,"TB CBR 02",,,"No data (CLASS B transponder)",,"JAKARTA ANCH",0,Tug,"2022-05-23 01:03:32",-6.056314,106.9534,
Indonesia,"LJ SEMPURNA",,,"No data (CLASS B transponder)",,JAKARTA,0,Fishing,"2022-05-28 14:35:02",-6.094567,106.803,IDJKT
Indonesia,8,,,"No data (CLASS B transponder)",,JAKARTA,0,Fishing,"2022-05-29 16:44:08",-6.102947,106.7749,IDJKT
Indonesia,"NAILI XII",,,"No data (CLASS B transponder)",,JAKARTA,0,Fishing,"2022-05-28 18:00:27",-6.097093,106.802,IDJKT
Indonesia,"KM METRO",,,"No data (CLASS B transponder)",,JAKARTA,0,Fishing,"2022-05-22 11:33:49",-6.107,106.7993,IDJKT
Indonesia,"KM SINAR PELANGI",,,"No data (CLASS B transponder)",,JAKARTA,0,Fishing,"2022-05-21 15:07:06",-6.099679,106.8011,IDJKT
Indonesia,"KM MITRA UTAMA REJEK",SHENZHEN,,"No data (CLASS B transponder)",,JAKARTA,0,Cargo,"2022-04-14 08:56:48",-6.09908,106.8026,IDJKT
Indonesia,"MPAX 01",,,"No data (CLASS B transponder)",,JAKARTA,0,"Special Craft","2022-05-06 13:54:50",-6.10664,106.8914,IDJKT
Indonesia,"KLM ALAM JAYA",,,"No data (CLASS B transponder)",,JAKARTA,0,Cargo,"2022-05-08 06:29:39",-6.117084,106.808,IDJKT
Indonesia,"KN TRISULA P 111",,"2022-11-19 19:00:00",SEA,,JAKARTA,0,"Special Craft","2022-11-02 07:27:55",-6.099673,106.8612,IDJKT
Indonesia,"KLM SYARIF PUSAKA",,,"No data (CLASS B transponder)",,JAKARTA,0,Cargo,"2022-05-13 13:49:36",-6.117085,106.808,IDJKT
Indonesia,"KM BINTANG MUTIARA",,,"No data (CLASS B transponder)",,JAKARTA,0,Unspecified,"2022-04-27 00:01:03",-6.104568,106.7764,IDJKT
Indonesia,5,,,"No data (CLASS B transponder)",,JAKARTA,0,Fishing,"2022-05-09 06:46:40",-6.100483,106.8023,IDJKT
Indonesia,"KM TENAR JAYA",,,"No data (CLASS B transponder)",,JAKARTA,0,Fishing,"2022-05-08 10:46:15",-6.093544,106.8012,IDJKT
Indonesia,"CELINE 08",JAKARTA,"2021-10-16 16:00:00",MARUNDA,,JAKARTA,8110370,Tanker,"2021-11-02 06:04:33",-6.096303,106.9303,IDJKT
Indonesia,"TANJUNG SARI PRIMA",,,"No data (CLASS B transponder)",,JAKARTA,0,Fishing,"2021-06-29 16:38:04",-5.823226,106.958,IDJKT
Indonesia,"PUTRA KENCANA VIII",,,"No data (CLASS B transponder)",,JAKARTA,0,Fishing,"2022-04-08 09:46:22",-6.09504,106.8027,IDJKT
Indonesia,"ARTATMINA TAMA 11",,,"No data (CLASS B transponder)",,JAKARTA,0,Fishing,"2022-04-20 10:39:34",-6.098862,106.8015,IDJKT
Indonesia,"KM NAGA 168",,,"No data (CLASS B transponder)",,JAKARTA,0,Fishing,"2022-04-20 20:52:31",-6.104358,106.7769,IDJKT
Indonesia,"KM TEGUH ARINDO",,,"No data (CLASS B transponder)",,JAKARTA,0,Fishing,"2022-04-23 07:38:15",-6.099152,106.8018,IDJKT
Indonesia,"KM.SUMAN JAYA P VIII",,,"No data (CLASS B transponder)",,JAKARTA,0,Fishing,"2022-04-22 09:19:30",-6.093335,106.8006,IDJKT
Indonesia,"KM KAKAP MERAH IX",,,"No data (CLASS B transponder)",,JAKARTA,0,Fishing,"2022-04-23 05:47:25",-6.103085,106.7779,IDJKT
Indonesia,"KM TWINDO 28",,,"No data (CLASS B transponder)",,JAKARTA,0,Fishing,"2022-04-20 00:41:40",-6.095177,106.8014,IDJKT
Indonesia,MJP,,,"No data (CLASS B transponder)",,JAKARTA,0,Fishing,"2022-04-20 02:43:04",-6.097752,106.8036,IDJKT
Indonesia,"KM HARAPAN JAYA IV",,,"No data (CLASS B transponder)",,JAKARTA,0,Fishing,"2022-04-20 19:14:18",-6.097678,106.803,IDJKT
Indonesia,"TB. MAJUAN 1",,,"No data (CLASS B transponder)",,"JAKARTA ANCH",0,Tug,"2022-04-22 07:43:44",-6.084074,106.8652,
Indonesia,8,,,"No data (CLASS B transponder)",,JAKARTA,0,Fishing,"2022-04-22 17:18:06",-6.096745,106.8021,IDJKT
Indonesia,"KM TWINDO 288",,,"No data (CLASS B transponder)",,JAKARTA,0,Fishing,"2022-04-19 23:51:47",-6.09598,106.8013,IDJKT
Indonesia,50,,,"No data (CLASS B transponder)",,JAKARTA,0,Fishing,"2022-04-15 17:43:44",-6.097742,106.8031,IDJKT
Indonesia,"BTG PUTRA MANDIRI V",,"2022-12-31 00:00:00",,,JAKARTA,0,Fishing,"2022-10-23 21:50:59",-6.101278,106.8029,IDJKT
Indonesia,"KM TWINDO 78",,,"No data (CLASS B transponder)",,JAKARTA,0,Fishing,"2022-04-19 23:22:51",-6.096053,106.8014,IDJKT
Indonesia,"PRIMA SUKSES 2",,,"No data (CLASS B transponder)",,JAKARTA,0,Fishing,"2022-04-15 22:16:02",-6.104681,106.7773,IDJKT
Indonesia,"KM. DAMASHA 7",,,"No data (CLASS B transponder)",,JAKARTA,0,Fishing,"2022-11-24 09:07:57",-6.099292,106.8039,IDJKT
Indonesia,"KM JIMMY WIJAYA 24",,,"No data (CLASS B transponder)",,JAKARTA,0,Fishing,"2022-11-07 06:23:48",-6.097067,106.8035,IDJKT
Indonesia,"SPOB R.JOHAN III",,,"No data (CLASS B transponder)",,JAKARTA,0,Tanker,"2022-04-01 07:54:05",-6.10861,106.8767,IDJKT
Indonesia,"ANUGRAH MINA PERKASA",,,"No data (CLASS B transponder)",,JAKARTA,0,Fishing,"2022-03-24 10:42:12",-6.104317,106.7766,IDJKT
Indonesia,"TB SLS 01",,"2023-01-01 01:01:00","No data (CLASS B transponder)",,JAKARTA,0,Tug,"2022-11-15 22:29:32",-6.103923,106.9192,IDJKT
Indonesia,"PERMATA INDAH II",,,"No data (CLASS B transponder)",,JAKARTA,0,Fishing,"2022-11-24 19:52:00",-6.077062,106.8021,IDJKT
Indonesia,"HASIL MELIMPAH II",,,"No data (CLASS B transponder)",,JAKARTA,0,Fishing,"2022-04-14 00:55:08",-6.102201,106.8026,IDJKT
Indonesia,"KM JIMMY WIJAYA 7",,,"No data (CLASS B transponder)",,JAKARTA,0,Fishing,"2022-11-08 08:41:59",-6.097067,106.8033,IDJKT
Indonesia,UNIONABADI,,,"No data (CLASS B transponder)",,JAKARTA,0,Fishing,"2022-04-13 04:25:25",-6.100471,106.8024,IDJKT
Indonesia,"JIMMY WIJAYA 16",,,"No data (CLASS B transponder)",,JAKARTA,0,Fishing,"2022-11-03 23:38:39",-6.097408,106.8029,IDJKT
Indonesia,"TB.KATELIA V","CAMAR MARINE TERMINA","2021-12-11 16:10:00",PRIOK,,JAKARTA,9207364,Tug,"2021-12-13 03:54:40",-6.108598,106.8766,IDJKT
Indonesia,"KM HORISON",,,"No data (CLASS B transponder)",,JAKARTA,0,Fishing,"2022-04-08 13:51:49",-6.094568,106.803,IDJKT
Indonesia,"CAHAYA MUTIARA 8A",,,"No data (CLASS B transponder)",,JAKARTA,0,Fishing,"2022-04-09 23:19:52",-6.104333,106.7765,IDJKT
Indonesia,"KM MAULANA XI",,,"No data (CLASS B transponder)",,JAKARTA,0,Fishing,"2022-03-23 00:57:25",-6.099933,106.8012,IDJKT
Indonesia,"MAHKOTA MAKIN JAYA",,,"No data (CLASS B transponder)",,JAKARTA,0,Fishing,"2022-04-07 00:06:00",-6.104203,106.777,IDJKT
Indonesia,"TUNA INDO PRIMA III",,,"No data (CLASS B transponder)",,JAKARTA,0,Fishing,"2022-04-07 12:56:49",-6.076945,106.7994,IDJKT
Indonesia,4,,,"No data (CLASS B transponder)",,JAKARTA,0,Fishing,"2022-04-01 17:10:44",-6.097742,106.8032,IDJKT
Indonesia,"KM MARCEL JAYA 12",,,"No data (CLASS B transponder)",,JAKARTA,0,Fishing,"2022-03-31 15:36:01",-6.096563,106.801,IDJKT
Indonesia,"KM ANUGERAH LAUT II",,,"No data (CLASS B transponder)",,JAKARTA,0,Fishing,"2022-03-29 15:20:28",-6.095115,106.8026,IDJKT
Indonesia,"JIMMI WIJAYA 10",,,"No data (CLASS B transponder)",,JAKARTA,0,,"2022-10-20 00:53:11",-6.097088,106.8032,IDJKT
Indonesia,"KM.MSJ 58",,,"No data (CLASS B transponder)",,JAKARTA,0,Fishing,"2022-03-26 22:13:35",-6.099997,106.803,IDJKT
Indonesia,"NAGA JAYA III",,,"No data (CLASS B transponder)",,JAKARTA,0,Fishing,"2022-11-14 21:39:47",-6.0965,106.8025,IDJKT
Indonesia,"HASIL LAUT 30",,,"No data (CLASS B transponder)",,JAKARTA,0,Fishing,"2022-10-18 23:31:09",-6.080618,106.7933,IDJKT
Indonesia,"JIMMY WIJAYA 33",,,"No data (CLASS B transponder)",,JAKARTA,0,Fishing,"2022-10-12 18:11:23",-6.097375,106.8031,IDJKT
Indonesia,"KM JW 39",,,"No data (CLASS B transponder)",,JAKARTA,0,Fishing,"2022-10-16 01:51:58",-6.097062,106.8033,IDJKT
Indonesia,"PULAU MAS",,,"No data (CLASS B transponder)",,JAKARTA,0,Fishing,"2022-11-25 12:53:47",-6.09425,106.7991,IDJKT
Indonesia,"STAR FISH",,,"No data (CLASS B transponder)",,JAKARTA,0,Tug,"2022-03-03 05:03:05",-6.683143,108.6386,IDJKT
Indonesia,"LADY FORTUNA 8",,,"No data (CLASS B transponder)",,JAKARTA,0,Fishing,"2022-10-04 19:52:40",-6.097967,106.8029,IDJKT
Indonesia,"INDAH SURYA KENCANA",,,"No data (CLASS B transponder)",,JAKARTA,0,Fishing,"2022-11-03 12:40:49",-6.104253,106.7766,IDJKT
Indonesia,MERAK,BITUNG,"2019-07-27 13:00:00",BITUNG,,JAKARTA,8997883,"Special Craft","2021-11-15 07:04:04",-6.10404,106.79,IDJKT
Indonesia,"ADRI LII",,"1900-01-01 00:00:00",,,JAKARTA,0,"Special Craft","2022-11-17 03:19:25",-6.109537,106.8783,IDJKT
Indonesia,"KM OCEAN JAYA 99",,,"No data (CLASS B transponder)",,JAKARTA,0,Fishing,"2022-11-25 08:21:21",-6.102602,106.7773,IDJKT
Indonesia,POLLUX,JAKARTA,"2022-11-24 09:04:00",,,JAKARTA,0,Fishing,"2022-11-24 03:11:13",-6.106548,106.8874,IDJKT
Indonesia,BAJO,,,"No data (CLASS B transponder)",,JAKARTA,0,Fishing,"2022-10-09 08:55:51",-6.098685,106.794,IDJKT
Indonesia,"CHARLY WIJAYA TUNA 2",,,"No data (CLASS B transponder)",,JAKARTA,0,Fishing,"2022-10-28 08:07:01",-6.097128,106.8034,IDJKT
Indonesia,"TB EAGLE 01",,,"No data (CLASS B transponder)",,JAKARTA,0,Tug,"2022-11-25 12:53:26",-6.103404,106.9535,IDJKT
Indonesia,"LANCAR JAYA SANTOSA",,,"No data (CLASS B transponder)",,JAKARTA,0,Fishing,"2022-03-02 09:04:51",-6.100517,106.8022,IDJKT
Indonesia,"KM LAUT JAYA",,,"No data (CLASS B transponder)",,JAKARTA,0,Fishing,"2022-11-08 15:07:22",-6.099645,106.8011,IDJKT
Indonesia,"PKJ 88",,,"No data (CLASS B transponder)",,JAKARTA,0,Fishing,"2022-11-25 12:53:46",-6.100227,106.8022,IDJKT
Indonesia,016487,,,"No data (CLASS B transponder)",,JAKARTA,0,Fishing,"2022-11-01 08:27:23",-6.104255,106.7768,IDJKT
Indonesia,MITRAPRIMASAMUDERAI,,,"No data (CLASS B transponder)",,JAKARTA,0,Fishing,"2022-11-23 10:02:10",-6.101083,106.8023,IDJKT
Indonesia,"KM BINTANGSEJAHTERA8",,,"No data (CLASS B transponder)",,JAKARTA,0,Fishing,"2022-11-17 15:17:53",-6.104305,106.7765,IDJKT
Indonesia,"KM.REVALINA 1",,,"No data (CLASS B transponder)",,JAKARTA,0,Fishing,"2022-11-24 15:45:00",-6.090737,106.9299,IDJKT
Indonesia,"KM AGUNG MAKMUR XXII",,,"No data (CLASS B transponder)",,JAKARTA,0,Fishing,"2022-10-20 22:25:10",-6.099192,106.8019,IDJKT
Indonesia,"SARI ETEKA JAYA 1",,,"No data (CLASS B transponder)",,JAKARTA,0,Fishing,"2022-11-22 02:46:54",-6.07569,106.8113,IDJKT
Indonesia,"KM. SETIA JAYA A",,,"No data (CLASS B transponder)",,JAKARTA,0,Fishing,"2022-11-01 16:37:07",-6.094552,106.803,IDJKT
Indonesia,"SURYA JAYA INDAH 1",,,"No data (CLASS B transponder)",,JAKARTA,0,Fishing,"2022-11-02 12:49:39",-6.102612,106.7772,IDJKT
Indonesia,"KM REMAJA ABADI",,,"No data (CLASS B transponder)",,JAKARTA,0,Fishing,"2022-11-03 02:42:10",-6.104138,106.7767,IDJKT
Indonesia,"SAHABAT SEJATI",,,"No data (CLASS B transponder)",,JAKARTA,0,Fishing,"2022-11-21 11:22:56",-6.072147,106.7615,IDJKT
Indonesia,AGRAJAYA333,,,"No data (CLASS B transponder)",,JAKARTA,0,Tug,"2022-11-12 03:57:15",-6.094578,106.803,IDJKT
Indonesia,ERASAMUDRA5,,,"No data (CLASS B transponder)",,JAKARTA,0,Fishing,"2022-11-23 13:53:49",-6.101042,106.8037,IDJKT
Indonesia,"BAHARI SEJATI",,,"No data (CLASS B transponder)",,JAKARTA,0,Fishing,"2022-11-02 11:38:08",-6.100495,106.8021,IDJKT
Indonesia,"ELANG SEPAKAT BARU",,,"No data (CLASS B transponder)",,JAKARTA,0,Fishing,"2022-11-24 00:30:44",-6.098853,106.8009,IDJKT
Indonesia,"KM NUSANTARA JAYA",,,"No data (CLASS B transponder)",,JAKARTA,0,Fishing,"2022-11-03 04:53:46",-6.082157,106.7913,IDJKT
Indonesia,"KLM INTAN AMELIA",,,"No data (CLASS B transponder)",,JAKARTA,0,Unspecified,"2022-11-23 04:08:02",-6.12485,106.8094,IDJKT
Indonesia,"KLM BUNGA SENTOSA II",,,"No data (CLASS B transponder)",,JAKARTA,0,Unspecified,"2022-11-23 05:43:09",-6.122702,106.8088,IDJKT
Indonesia,"KLM BINTANGSAMUDRA05",,,"No data (CLASS B transponder)",,JAKARTA,0,Cargo,"2022-11-20 22:22:40",-6.106817,106.8093,IDJKT
Indonesia,"BARUNA JAYA MAKMUR",,,"No data (CLASS B transponder)",,JAKARTA,0,Fishing,"2022-10-29 01:24:05",-6.090732,106.8021,IDJKT
Indonesia,"KM PMJ 88",,,"No data (CLASS B transponder)",,JAKARTA,0,Fishing,"2022-11-25 05:43:13",-6.097115,106.8033,IDJKT
Indonesia,"KM MEKAR SEJATI",,,"No data (CLASS B transponder)",,JAKARTA,0,Fishing,"2022-11-09 18:05:09",-6.099277,106.8018,IDJKT
Indonesia,"DONGGALA 1",,,"No data (CLASS B transponder)",,JAKARTA,0,Fishing,"2022-11-16 21:17:18",-6.104107,106.7768,IDJKT
Indonesia,"KM.ANDIKA BAHARI 01",,,"No data (CLASS B transponder)",,JAKARTA,0,Fishing,"2022-10-27 15:34:21",-6.104282,106.7766,IDJKT
Indonesia,"HARAPAN MAKMUR III",,,"No data (CLASS B transponder)",,JAKARTA,0,Fishing,"2022-10-31 09:41:58",-6.100465,106.8023,IDJKT
Indonesia,"KM.MEKAR KENCANA 99",,,"No data (CLASS B transponder)",,JAKARTA,0,Fishing,"2022-10-27 11:45:07",-6.082462,106.801,IDJKT
Indonesia,"BATAM JAYA",,,"No data (CLASS B transponder)",,JAKARTA,0,Fishing,"2022-11-18 15:50:08",-6.096692,106.8025,IDJKT
Indonesia,"KM MULIA 268",,,"No data (CLASS B transponder)",,JAKARTA,0,Fishing,"2022-10-31 19:39:21",-6.094515,106.803,IDJKT
Indonesia,"TT MALOEKOE",,,"No data (CLASS B transponder)",,JAKARTA,0,Other,"2022-11-14 04:02:40",-6.085707,106.9569,IDJKT
Indonesia,"TEGUH HARAPAN I",,,"No data (CLASS B transponder)",,JAKARTA,0,Fishing,"2022-11-06 22:25:49",-6.094412,106.8,IDJKT
Indonesia,"KM HARMONI",,,"No data (CLASS B transponder)",,JAKARTA,0,Fishing,"2022-02-16 09:09:14",-6.094728,106.7987,IDJKT
Indonesia,CH,,,"No data (CLASS B transponder)",,JAKARTA,0,Fishing,"2022-11-24 13:39:18",-6.091467,106.8024,IDJKT
Indonesia,"HASIL MELIMPAH 18",,,"No data (CLASS B transponder)",,JAKARTA,0,Fishing,"2022-11-10 13:33:48",-6.0983,106.8034,IDJKT
Indonesia,"SUN STAR",,,"No data (CLASS B transponder)",,JAKARTA,0,Fishing,"2022-10-23 20:18:59",-6.099435,106.8012,IDJKT
Indonesia,"KM UNITED XIX",,,"No data (CLASS B transponder)",,JAKARTA,0,Fishing,"2022-01-19 06:08:01",-6.102083,106.8029,IDJKT
Indonesia,"KM SAMUDRA HINDIA",,,"No data (CLASS B transponder)",,JAKARTA,0,Fishing,"2022-10-21 03:43:56",-6.10092,106.8041,IDJKT
Indonesia,"GARUDA JAYA V",SHENZHEN,,"No data (CLASS B transponder)",,JAKARTA,0,Unspecified,"2022-10-19 14:48:14",-6.098992,106.8024,IDJKT
Indonesia,"SAGAM BERKA",,,"No data (CLASS B transponder)",,JAKARTA,0,"Pleasure Craft","2022-10-04 12:53:17",-6.116315,106.8079,IDJKT
Indonesia,"TRIJAYA 28",,,"No data (CLASS B transponder)",,JAKARTA,0,Fishing,"2022-10-18 02:32:42",-6.095127,106.8031,IDJKT
Indonesia,"KM BINTANG NUSANTARA",,,"No data (CLASS B transponder)",,JAKARTA,0,Fishing,"2022-10-15 00:32:18",-6.09644,106.8033,IDJKT
Indonesia,"HARAPAN J PERKASA VI",,,"No data (CLASS B transponder)",,JAKARTA,0,Fishing,"2022-10-15 13:16:26",-6.100646,106.8022,IDJKT
Indonesia,GEOSAT,,,"No data (CLASS B transponder)",,JAKARTA,0,"Special Craft","2022-10-14 08:36:21",-6.16603,106.8417,IDJKT
Indonesia,"HASIL LAUT 62",,,"No data (CLASS B transponder)",,JAKARTA,0,Fishing,"2022-10-09 16:47:56",-6.097153,106.8005,IDJKT
Indonesia,"KM JANGKAR MAS 1",,,"No data (CLASS B transponder)",,JAKARTA,0,Fishing,"2022-10-10 16:25:07",-6.104118,106.7766,IDJKT
Indonesia,"SUMBER HARTA MINA.01",,,"No data (CLASS B transponder)",,JAKARTA,0,Fishing,"2022-10-10 20:05:28",-6.104177,106.7769,IDJKT
Indonesia,"SETIA DARMA ABADI",,,"No data (CLASS B transponder)",,JAKARTA,0,Fishing,"2022-11-08 09:16:34",-6.094128,106.8031,IDJKT
Indonesia,"KM SINAR JIMI II",,,"No data (CLASS B transponder)",,JAKARTA,0,Fishing,"2022-10-10 20:04:09",-6.104177,106.777,IDJKT
Indonesia,"KM MAKMUR SENTOSA",,,"No data (CLASS B transponder)",,JAKARTA,0,Fishing,"2022-11-24 23:57:54",-6.099898,106.8021,IDJKT
Indonesia,"KM SUMBER SEJATI",,,"No data (CLASS B transponder)",,JAKARTA,0,Fishing,"2022-10-02 15:46:51",-6.104293,106.7767,IDJKT
Indonesia,TB.WARTECH,,"2021-03-07 13:52:00",,,JAKARTA,0,Cargo,"2021-12-22 07:55:48",-6.097032,106.8796,IDJKT
Indonesia,"MAKMUR JAYA ABADI I",,,"No data (CLASS B transponder)",,JAKARTA,0,Fishing,"2022-10-05 02:41:36",-6.104152,106.7766,IDJKT
Indonesia,"WRPSTIMOR 01",,,"No data (CLASS B transponder)",,JAKARTA,0,"High Speed Craft","2022-01-02 04:16:42",-6.098622,106.8009,IDJKT
Indonesia,"KM VARIA FORTUNA",,,"No data (CLASS B transponder)",,JAKARTA,0,Fishing,"2022-10-05 06:30:44",-6.099518,106.8009,IDJKT
Indonesia,"KN SUAR 08",,"1900-01-01 00:00:00",,,JAKARTA,0,Other,"2022-06-23 01:03:00",-6.113946,106.8711,IDJKT
Indonesia,"DAMAI SELATAN",,"2021-12-24 08:00:00","M.ANGKE IDN",,JAKARTA,9053969,Tanker,"2021-07-27 00:08:58",-6.121348,106.8846,IDJKT
Indonesia,"BINTANG MARS MAKMUR",,,"No data (CLASS B transponder)",,JAKARTA,0,Fishing,"2022-10-01 13:56:24",-6.10409,106.7766,IDJKT
Indonesia,"TEGUH SAMUDERA",,,"No data (CLASS B transponder)",,JAKARTA,0,Fishing,"2022-01-22 18:18:46",-6.098727,106.8032,IDJKT
Indonesia,"KLM.BERKAT KURNIA IL",,,"No data (CLASS B transponder)",,JAKARTA,0,Cargo,"2022-09-28 07:04:02",-6.103295,106.7793,IDJKT
Indonesia,"MITRA JAYA BERSAMA",,,"No data (CLASS B transponder)",,JAKARTA,0,Fishing,"2022-09-07 03:33:54",-6.104593,106.799,IDJKT
Indonesia,"MAULANA 17",,,"No data (CLASS B transponder)",,JAKARTA,0,Fishing,"2022-01-16 00:59:16",-6.093045,106.8009,IDJKT
Indonesia,"PANDU JAYA PERKASA 3",,,"No data (CLASS B transponder)",,"JAKARTA ANCH",0,Tug,"2022-09-21 11:27:52",-5.984663,106.8697,
Indonesia,"ARLINE 02",JAKARTA,"2022-11-30 11:30:00",TGPRIOK,,JAKARTA,0,Tanker,"2022-11-06 04:51:47",-6.086228,106.9322,IDJKT
Indonesia,"KM ARTA MINA JAYA II",,,"No data (CLASS B transponder)",,JAKARTA,0,Fishing,"2022-09-12 20:34:24",-6.098999,106.8014,IDJKT
Indonesia,"KM MAJU JAYA 1",,,"No data (CLASS B transponder)",,JAKARTA,0,Fishing,"2022-09-15 11:53:08",-6.102531,106.7772,IDJKT
Indonesia,SH,,,"No data (CLASS B transponder)",,JAKARTA,0,Fishing,"2022-11-20 01:08:43",-6.10143,106.8023,IDJKT
Indonesia,"TB SEROJA STAR 1",,,"No data (CLASS B transponder)",,JAKARTA,0,Tug,"2021-08-30 10:15:19",-6.094875,106.9563,IDJKT
Indonesia,"KM KARYA NUSANTARA",,,"No data (CLASS B transponder)",,JAKARTA,0,Fishing,"2022-09-10 04:05:47",-6.102635,106.7774,IDJKT
Indonesia,"KM.HARAPAN JAYA MAJU",,,"No data (CLASS B transponder)",,JAKARTA,0,Fishing,"2021-12-13 12:50:08",-6.097788,106.8031,IDJKT
Indonesia,"BARUNA JAYA II",JAKARTA,"2021-06-22 08:00:00",JAKARTA,,JAKARTA,8420048,"Special Craft","2021-04-22 03:20:47",-6.096577,106.8004,IDJKT
Indonesia,"ASIA POPEYE 07",,,"No data (CLASS B transponder)",,JAKARTA,0,Fishing,"2022-08-29 01:34:53",-6.099872,106.8021,IDJKT
Indonesia,"KP 2004",,,"No data (CLASS B transponder)",,JAKARTA,0,"Special Craft","2021-12-26 05:20:48",-6.101853,106.9103,IDJKT
Indonesia,KM.BINTANG.MUTIARA.9,,,"No data (CLASS B transponder)",,JAKARTA,0,Fishing,"2021-12-23 03:16:08",-6.104353,106.7767,IDJKT
Indonesia,"JW 38",,,"No data (CLASS B transponder)",,JAKARTA,0,Fishing,"2022-08-09 04:43:22",-6.097155,106.8032,IDJKT
Indonesia,"BERKAH MELIMPAH 8",,,"No data (CLASS B transponder)",,JAKARTA,0,Fishing,"2021-08-19 09:30:39",-6.101683,106.8029,IDJKT
Indonesia,"BINTANG FORTUNA 1",,,"No data (CLASS B transponder)",,JAKARTA,0,Fishing,"2022-08-21 22:34:12",-6.10204,106.7778,IDJKT
Indonesia,"KM SUMBER BUANA 35",,,"No data (CLASS B transponder)",,JAKARTA,0,Fishing,"2022-08-06 12:30:54",-6.099585,106.8013,IDJKT
Indonesia,"ROYAL TB 5",,,"No data (CLASS B transponder)",,"JAKARTA ANCH",0,Tug,"2021-10-24 16:38:34",-6.066833,106.9493,
Indonesia,"KM HASIL ABADI 18",,,"No data (CLASS B transponder)",,JAKARTA,0,Fishing,"2021-12-15 19:21:45",-6.099497,106.8015,IDJKT
Indonesia,"HASIL MELIMPAH",,,"No data (CLASS B transponder)",,JAKARTA,0,Fishing,"2021-12-04 08:02:55",-6.100212,106.8021,IDJKT
Indonesia,"TRIMINA PRIMA",,,"No data (CLASS B transponder)",,JAKARTA,0,Fishing,"2022-08-10 19:46:51",-6.098218,106.8008,IDJKT
Indonesia,"KM.ABADI MAJU",,,"No data (CLASS B transponder)",,JAKARTA,0,Fishing,"2022-07-13 02:04:52",-6.100286,106.8022,IDJKT
Indonesia,"SINAR INTAN PERKASA",,,"No data (CLASS B transponder)",,JAKARTA,0,Fishing,"2022-07-23 22:02:27",-6.10383,106.7773,IDJKT
Indonesia,"KM ANJELINA II",,,"No data (CLASS B transponder)",,JAKARTA,0,Fishing,"2022-08-03 16:16:17",-6.09095,106.8021,IDJKT
Indonesia,"PUTRA ANUGRAHBERJAYA",,,"No data (CLASS B transponder)",,JAKARTA,0,Fishing,"2022-08-03 23:48:16",-6.100487,106.8023,IDJKT
Indonesia,"HOKKIE SAMUDRA 7",,,"No data (CLASS B transponder)",,JAKARTA,0,Fishing,"2021-11-13 08:45:28",-6.09973,106.8033,IDJKT
Indonesia,"KLM FADILA ILAHI",,,"No data (CLASS B transponder)",,JAKARTA,0,Tug,"2022-07-31 07:32:38",-6.12393,106.8092,IDJKT
Indonesia,"KM.PELANGI NUSNTRA 1",,,"No data (CLASS B transponder)",,JAKARTA,0,Cargo,"2021-09-07 07:28:08",-6.098455,106.8826,IDJKT
Indonesia,"KM.JAYA BAHARI",,,"No data (CLASS B transponder)",,JAKARTA,0,Fishing,"2022-08-01 03:08:25",-6.096097,106.7995,IDJKT
Indonesia,"KM.DHARMA MAJU",,,"No data (CLASS B transponder)",,JAKARTA,0,Fishing,"2022-07-29 14:09:45",-6.104259,106.7768,IDJKT
Indonesia,"MARCEL JAYA 56",,,"No data (CLASS B transponder)",,JAKARTA,0,Fishing,"2022-05-12 22:27:18",-6.104197,106.7769,IDJKT
Indonesia,"AWB MSI8",,,"No data (CLASS B transponder)",,JAKARTA,0,Passenger,"2022-06-29 04:09:30",-6.107872,106.8767,IDJKT
Indonesia,"KM SEMANGAT PERKASA",,,"No data (CLASS B transponder)",,JAKARTA,0,Fishing,"2021-11-10 03:55:42",-6.10341,106.777,IDJKT
Indonesia,"KM BINA JAYA",,,"No data (CLASS B transponder)",,JAKARTA,0,Fishing,"2022-07-30 13:45:30",-6.102612,106.7773,IDJKT
Indonesia,"KM JAYA BAHARI 02",,,"No data (CLASS B transponder)",,JAKARTA,0,Fishing,"2022-07-27 03:05:36",-6.100535,106.8022,IDJKT
Indonesia,"BINTANG SEJAHTERA 28",,,"No data (CLASS B transponder)",,JAKARTA,0,Unspecified,"2021-11-13 04:47:02",-6.101912,106.7771,IDJKT
Indonesia,"SUMAN JAYA PERKASA 3",,,"No data (CLASS B transponder)",,JAKARTA,0,Fishing,"2021-11-13 00:40:42",-6.093359,106.8005,IDJKT
Indonesia,0,,,"No data (CLASS B transponder)",,JAKARTA,0,Fishing,"2022-07-15 01:21:22",-6.110775,106.8057,IDJKT
Indonesia,"TB WOLF",,,"No data (CLASS B transponder)",,JAKARTA,0,Tug,"2022-04-21 08:51:57",-6.106035,106.8776,IDJKT
Indonesia,"HASIL MELIMPAH 23",,,"No data (CLASS B transponder)",,JAKARTA,0,Fishing,"2021-11-05 13:50:17",-6.101898,106.8028,IDJKT
Indonesia,"KM N M S",,,"No data (CLASS B transponder)",,JAKARTA,0,Fishing,"2022-07-02 02:55:33",-6.102525,106.7774,IDJKT
Indonesia,"BINTANG HARAPANRESTU",,,"No data (CLASS B transponder)",,JAKARTA,0,Fishing,"2022-07-07 10:33:45",-6.099035,106.8025,IDJKT
Indonesia,"KM VENEZIA 02",,,"No data (CLASS B transponder)",,JAKARTA,0,Fishing,"2022-07-07 14:37:56",-6.104875,106.7769,IDJKT
Indonesia,"REJEKI INDAH WIJAYA",,,"No data (CLASS B transponder)",,JAKARTA,0,Fishing,"2022-07-03 02:55:59",-6.104118,106.7767,IDJKT
Indonesia,"MARGO NUGROHO",,,"No data (CLASS B transponder)",,JAKARTA,0,Fishing,"2021-10-20 14:15:38",-6.102213,106.8026,IDJKT
Indonesia,"KM SUMBER JAYA VI",,,"No data (CLASS B transponder)",,JAKARTA,0,Fishing,"2021-10-18 04:39:23",-6.099265,106.8038,IDJKT
Indonesia,"BARUNA 1",,"2021-12-30 20:30:00","PT.DPS TG. PERAK",,JAKARTA,8750297,Passenger,"2021-04-14 13:07:31",-6.09783,106.8881,IDJKT
Indonesia,"JIAYU 1",SINGAPORE,"2020-09-21 02:00:00",EOPL,,JAKARTA,8916982,Tanker,"2020-11-24 09:13:53",-6.109577,106.8936,IDJKT
Indonesia,"TEGUH HASLINDO",,,"No data (CLASS B transponder)",,JAKARTA,0,Fishing,"2022-04-16 03:30:40",-6.095472,106.8017,IDJKT
Indonesia,"OCT.PERKASA PRIMA 99",,,"No data (CLASS B transponder)",,JAKARTA,0,"Sailing Vessel","2022-06-22 19:32:43",-6.111822,106.8669,IDJKT
Indonesia,"APEL MERAH SEGAR",,,"No data (CLASS B transponder)",,JAKARTA,0,Passenger,"2022-06-17 23:17:55",-6.094453,106.8002,IDJKT
Indonesia,"KM .DEWATA SAMUDRA",,,"No data (CLASS B transponder)",,JAKARTA,0,Fishing,"2022-04-05 02:58:00",-6.096159,106.8008,IDJKT
Indonesia,"HASIL LAUT",,,"No data (CLASS B transponder)",,JAKARTA,0,Fishing,"2022-06-10 17:31:15",-6.104212,106.7767,IDJKT
Indonesia,"TB.SELAT MALAKA",SINGAPORE,"2022-03-05 10:30:00",EOPL,,JAKARTA,0,Tug,"2022-05-14 08:51:08",-6.081995,106.8864,IDJKT
Indonesia,"DANAU TOBA PERMAI",,,"No data (CLASS B transponder)",,JAKARTA,0,Fishing,"2022-06-08 17:36:46",-6.104307,106.7768,IDJKT
Indonesia,ABADI,,,"No data (CLASS B transponder)",,JAKARTA,0,Fishing,"2022-05-22 18:21:24",-6.09916,106.8021,IDJKT
Indonesia,"MAULANA VII",,,"No data (CLASS B transponder)",,JAKARTA,0,Fishing,"2022-06-02 01:38:52",-6.101429,106.8024,IDJKT
Indonesia,"KM.REJEKI VICTORY 28",,,"No data (CLASS B transponder)",,JAKARTA,0,Fishing,,-7.5329,134.525,IDJKT
Indonesia,"B JAYA .IX",,,"No data (CLASS B transponder)",,JAKARTA,0,Tanker,"2022-05-11 04:24:00",-6.10424,106.7768,IDJKT
Indonesia,"KM MAULANA V",,,"No data (CLASS B transponder)",,JAKARTA,0,Fishing,"2022-05-27 14:56:11",-6.096348,106.8016,IDJKT
Indonesia,"PLANET JAYA III",,,"No data (CLASS B transponder)",,JAKARTA,0,Fishing,"2022-05-29 22:16:24",-6.104275,106.7769,IDJKT
Indonesia,"SUMBER KENCANA MAS",,,"No data (CLASS B transponder)",,JAKARTA,0,Fishing,"2022-04-12 14:31:13",-6.094584,106.8031,IDJKT
Indonesia,"KM AJENG VI",,"2021-10-31 05:25:00",TURUBULU,,"JAKARTA ANCH",0,Cargo,"2021-08-21 08:30:43",-6.031422,106.8907,
Indonesia,"KM BINTANG KASIH",,,"No data (CLASS B transponder)",,JAKARTA,0,Fishing,"2022-05-18 21:27:18",-6.0679,106.768,IDJKT
Indonesia,"ADI MINA PERKASA",,,"No data (CLASS B transponder)",,JAKARTA,0,Other,"2022-05-24 15:17:45",-6.104352,106.7765,IDJKT
Indonesia,"LQH SMH ATMFSNLP 00",,,"No data (CLASS B transponder)",,JAKARTA,0,Cargo,"2022-04-25 05:38:46",-6.104432,106.7765,IDJKT
Indonesia,"MAULANA 27",,,"No data (CLASS B transponder)",,JAKARTA,0,Fishing,"2022-04-14 07:44:57",-6.099765,106.8011,IDJKT
Indonesia,"KM.TEDDY WIJAYA III",,,"No data (CLASS B transponder)",,JAKARTA,0,Fishing,"2021-09-02 23:39:29",-6.094697,106.7989,IDJKT
Indonesia,"PRIUK SHIP",,"2022-05-14 05:06:00",PRIUK,,JAKARTA,0,,"2022-05-14 05:08:05",-6.16826,106.8833,IDJKT
Indonesia,4015,JAKARTA,"1900-01-01 00:00:00",,,JAKARTA,0,Unspecified,"2021-08-10 05:13:53",-6.112669,106.8715,IDJKT
Indonesia,"KM SEGARA TUNA",,,"No data (CLASS B transponder)",,JAKARTA,0,Fishing,"2022-03-25 09:48:16",-6.097054,106.8035,IDJKT
Indonesia,"JIMMY WIJAYA 17",,,"No data (CLASS B transponder)",,JAKARTA,0,Fishing,"2022-03-22 06:11:45",-6.097034,106.8034,IDJKT
Indonesia,"KM MARCEL JAYA 11",,,"No data (CLASS B transponder)",,JAKARTA,0,Fishing,"2021-04-13 07:13:13",-5.766632,134.2511,IDJKT
Indonesia,"HARAPAN J PERKASA V",,,"No data (CLASS B transponder)",,JAKARTA,0,Fishing,"2022-04-16 05:48:24",-6.09398,106.8001,IDJKT
Indonesia,"KM.CITRA NUSANTARA10",,,"No data (CLASS B transponder)",,JAKARTA,0,Fishing,"2022-04-23 23:33:09",-6.098805,106.803,IDJKT
Indonesia,"NUSANTARA BERSATU",JAKARTA,"2021-10-25 21:00:00",,,"JAKARTA ANCH",8742927,Tug,"2022-01-03 11:34:15",-6.004253,106.9549,
Indonesia,"RANI JAYA II",,,"No data (CLASS B transponder)",,JAKARTA,0,Fishing,"2022-04-09 10:38:50",-6.102185,106.8026,IDJKT
Indonesia,"HARAPAN JAYA",,,"No data (CLASS B transponder)",,JAKARTA,0,Fishing,"2022-03-14 11:44:03",-6.097277,106.802,IDJKT
Indonesia,"TRIJAYA 09",,,"No data (CLASS B transponder)",,JAKARTA,0,Fishing,"2022-04-08 23:10:32",-6.095028,106.8026,IDJKT
Indonesia,"EKA JAYA III",,,"No data (CLASS B transponder)",,JAKARTA,0,Fishing,"2022-03-23 14:48:08",-6.100525,106.8023,IDJKT
Indonesia,"KM SINAR SEGARA",,,"No data (CLASS B transponder)",,JAKARTA,0,Fishing,"2022-04-08 14:59:03",-6.100478,106.8026,IDJKT
Indonesia,"B NTANG SEJAHTERA 1",,,"No data (CLASS B transponder)",,JAKARTA,0,,"2022-04-19 12:28:18",-6.104257,106.7771,IDJKT
Indonesia,"MESIN RUSAK",,,"No data (CLASS B transponder)",,JAKARTA,0,Unspecified,"2022-04-20 20:48:16",-6.104252,106.7773,IDJKT
Indonesia,"SAMPURNA JATI MAKMUR",,,"No data (CLASS B transponder)",,JAKARTA,0,Fishing,"2022-04-24 17:35:52",-6.094463,106.803,IDJKT
Indonesia,"DEWATA TIMUR XI",,,"No data (CLASS B transponder)",,JAKARTA,0,Fishing,"2022-03-08 17:00:46",-6.0986,106.8033,IDJKT
Indonesia,"KM SETIA REJEKI",,,"No data (CLASS B transponder)",,JAKARTA,0,Fishing,"2022-04-20 22:15:31",-6.096263,106.8022,IDJKT
Indonesia,"KM ANJELINA III",,,"No data (CLASS B transponder)",,JAKARTA,0,Fishing,"2022-04-24 17:52:08",-6.097283,106.8017,IDJKT
Indonesia,"KM. LUCKY 68",,,"No data (CLASS B transponder)",,JAKARTA,0,Fishing,"2022-04-22 16:06:24",-6.095842,106.802,IDJKT
Indonesia,"KMMUTIARA PAPUA 5",,,"No data (CLASS B transponder)",,JAKARTA,0,Fishing,"2022-04-13 08:07:10",-6.105008,106.777,IDJKT
Indonesia,"KM G J A",,,"No data (CLASS B transponder)",,JAKARTA,0,Fishing,"2022-04-21 00:56:36",-6.10043,106.8022,IDJKT
Indonesia,"KM ARTMINA TAMA22",,,"No data (CLASS B transponder)",,JAKARTA,0,Fishing,"2022-04-23 02:40:25",-6.093787,106.8029,IDJKT
Indonesia,HL.210.BUNCIS,,,"No data (CLASS B transponder)",,JAKARTA,0,Fishing,"2022-04-15 18:41:01",-6.097495,106.8024,IDJKT
Indonesia,"KM FUJIYAMA",,,"No data (CLASS B transponder)",,JAKARTA,0,Fishing,"2022-03-31 14:01:07",-6.096685,106.8009,IDJKT
Indonesia,"KM.NATUNA JAYA 22",,,"No data (CLASS B transponder)",,JAKARTA,0,Fishing,"2022-04-16 03:58:58",-6.097853,106.803,IDJKT
Indonesia,"KM.SEKARA BOTOK",,,"No data (CLASS B transponder)",,JAKARTA,0,"Sailing Vessel","2022-04-18 20:15:57",-6.108252,106.775,IDJKT
Indonesia,"JIMMY WIJAYA XXXI",,,"No data (CLASS B transponder)",,JAKARTA,0,Fishing,"2022-04-04 02:01:10",-6.092945,106.7883,IDJKT
Indonesia,"BINTANG PELITA",,,"No data (CLASS B transponder)",,JAKARTA,0,Fishing,"2022-04-15 14:52:54",-6.104512,106.7769,IDJKT
Indonesia,"KM TEGUH JAYA",,,"No data (CLASS B transponder)",,JAKARTA,0,Fishing,"2022-04-14 13:51:33",-6.093848,106.8021,IDJKT
Indonesia,"BINTANG JAYA BARU 3",,,"No data (CLASS B transponder)",,JAKARTA,0,Fishing,"2022-04-04 07:29:48",-6.102337,106.7764,IDJKT
Indonesia,0165,,,"No data (CLASS B transponder)",,JAKARTA,0,Fishing,"2022-04-13 04:10:30",-6.099293,106.8021,IDJKT
Indonesia,"SINAR SAMUDRA 88",,,"No data (CLASS B transponder)",,JAKARTA,0,Fishing,"2022-04-12 17:48:52",-6.100428,106.8023,IDJKT
Indonesia,"KM REZEKI LAUT",,,"No data (CLASS B transponder)",,JAKARTA,0,Fishing,"2022-04-08 13:53:55",-6.100483,106.8025,IDJKT
Indonesia,"KM DEN BAGUS",,,"No data (CLASS B transponder)",,JAKARTA,0,Fishing,"2022-03-15 02:07:39",-6.100552,106.8022,IDJKT
Indonesia,"KM DULI WIJAYA I",,,"No data (CLASS B transponder)",,JAKARTA,0,Fishing,"2022-04-01 03:36:34",-6.099623,106.8038,IDJKT
Indonesia,"KM MULTI JAYA",,,"No data (CLASS B transponder)",,JAKARTA,0,Fishing,"2022-04-02 23:57:44",-6.101131,106.8027,IDJKT
Indonesia,"BAHTERA INDAH JAYA",,,"No data (CLASS B transponder)",,JAKARTA,0,Fishing,"2022-03-18 09:19:06",-6.100572,106.8041,IDJKT
Indonesia,"SPOB PROSPER THREE",,,"No data (CLASS B transponder)",,"JAKARTA ANCH",0,Tanker,"2022-11-25 12:45:38",-6.061089,106.9395,
Indonesia,"PRIMO DOMINIE",,,"No data (CLASS B transponder)",,JAKARTA,0,"Pleasure Craft","2022-03-24 08:23:44",-6.120355,106.813,IDJKT
Indonesia,"HARAPAN JAYA IX",,,"No data (CLASS B transponder)",,JAKARTA,0,Fishing,"2022-02-22 03:25:22",-6.079021,106.8044,IDJKT
Indonesia,"INTAN DAYA 88",BELAWAN,"2020-07-11 05:36:00",BELAWAN,,JAKARTA,9804540,Cargo,"2021-10-14 12:26:42",-6.100655,106.8778,IDJKT
Indonesia,"KM MARCEL JAYA 55",,,"No data (CLASS B transponder)",,JAKARTA,0,Fishing,"2022-03-19 00:39:08",-6.0637,106.8069,IDJKT
Indonesia,"KM SINAR GEMILANG",MUARA,"2021-12-31 00:00:00",MUARA,,JAKARTA,0,Fishing,"2022-03-15 16:43:28",-6.100542,106.8024,IDJKT
Indonesia,"ABADI JAYA A1",,,"No data (CLASS B transponder)",,JAKARTA,0,Fishing,"2022-03-26 05:02:03",-6.101365,106.8023,IDJKT
Indonesia,"KM ANUGRAH BAHARI 9",,,"No data (CLASS B transponder)",,JAKARTA,0,Fishing,"2022-03-28 07:06:48",-6.101405,106.8023,IDJKT
Indonesia,"KM MULIA 01",,,"No data (CLASS B transponder)",,JAKARTA,0,Fishing,"2022-03-11 06:56:32",-6.100773,106.8022,IDJKT
Indonesia,"NUSANTARA INDAH JAYA",,"2021-12-31 00:00:00",,,JAKARTA,0,Fishing,"2022-03-11 04:45:31",-6.100613,106.804,IDJKT
Indonesia,"KM MAULANA 21",,,"No data (CLASS B transponder)",,JAKARTA,0,Fishing,"2022-03-08 18:36:06",-6.094497,106.803,IDJKT
Indonesia,"KM BERKAH BERSAMA 8",,,"No data (CLASS B transponder)",,JAKARTA,0,Fishing,"2022-03-10 14:57:09",-6.100497,106.8022,IDJKT
Indonesia,"KM.SABUK NUSANTARA36",,"2022-11-23 12:00:00",TMBLN,,JAKARTA,0,Passenger,"2022-11-24 02:56:54",-6.10081,106.8772,IDJKT
Indonesia,"SINAR SAMUDRA 8",,,"No data (CLASS B transponder)",,JAKARTA,0,Fishing,"2022-02-27 20:42:44",-6.102533,106.7774,IDJKT
Indonesia,"KM MARCEL JAYA 57",,,"No data (CLASS B transponder)",,JAKARTA,0,"Pleasure Craft","2022-03-19 08:01:59",-6.0944,106.8,IDJKT
Indonesia,"PELITA ABADI",,,"No data (CLASS B transponder)",,JAKARTA,0,Fishing,"2022-03-19 02:34:45",-6.097498,106.802,IDJKT
Indonesia,"PEMBURU SAMUDRA XI",,,"No data (CLASS B transponder)",,JAKARTA,0,Fishing,"2022-03-18 04:03:21",-6.091098,106.7893,IDJKT
Indonesia,DIMAS.ALMANSUR.01,,,"No data (CLASS B transponder)",,JAKARTA,0,Fishing,"2021-07-06 15:43:49",-6.108477,106.7749,IDJKT
Indonesia,"KM. ANUGRAH M S 1",,,"No data (CLASS B transponder)",,JAKARTA,0,Fishing,"2022-03-15 03:39:03",-6.09468,106.7997,IDJKT
Indonesia,"LAUT SELATAN",MUNTOK,"2018-12-16 18:30:00",MUNTOK,,JAKARTA,8325872,"Special Craft","2019-03-26 11:43:04",-6.112388,106.8666,IDJKT
Indonesia,"KLM.BINTANG HRPN JAY",,,"No data (CLASS B transponder)",,JAKARTA,0,Cargo,"2022-03-07 05:10:54",-6.123837,106.8092,IDJKT
Indonesia,"TANTO FAJAR III",SAMARINDA,"2015-06-03 23:00:00",SAMABINDA,,JAKARTA,8900995,Cargo,"2018-10-21 12:37:01",-6.103755,106.8824,IDJKT
Indonesia,19,,,"No data (CLASS B transponder)",,JAKARTA,0,Fishing,"2022-02-24 03:53:47",-6.097368,106.8019,IDJKT
Indonesia,"KMN.CIPTA WIJAYA",,,"No data (CLASS B transponder)",,JAKARTA,0,"Special Craft","2022-02-21 12:58:02",-6.081944,106.7935,IDJKT
Indonesia,"F GUNAWAN",,,"No data (CLASS B transponder)",,JAKARTA,0,Passenger,"2020-11-14 01:21:42",-6.09461,106.7949,IDJKT
Indonesia,"SINARLAUTANMAKMUR I",,,"No data (CLASS B transponder)",,JAKARTA,0,Fishing,"2022-02-18 01:55:59",-6.105305,106.7765,IDJKT
Indonesia,"BINTANG TIMUR II",,,"No data (CLASS B transponder)",,JAKARTA,0,Cargo,"2022-02-09 23:32:25",-6.099743,106.8034,IDJKT
Indonesia,"KM. JAYA MITRA",,,"No data (CLASS B transponder)",,JAKARTA,0,Fishing,"2022-02-10 22:19:09",-6.093057,106.802,IDJKT
